Time,ID,latitude,longitude,altitude,xVelocity,yVelocity,zVelocity,roll,pitch,yaw,roll_rate,pitch_rate,yaw_rate,attitude_z_up
0,0,39.0023,125.7605,80,-7.36E-06,119.7,8.3710.0000,-0.0698,1.5708,0,0,0,1,1
1,0,39.0034,125.7605,94.137,-0.2658,135.2,4.2750.0000,-0.0316,1.5728,0,0,0,1,1
2,0,39.0045,125.7604,119.668,-1.169,149.1,1.4250.0000,-0.0096,1.5786,0,0,0,1,1
3,0,39.0057,125.7603,156.387,-2.801,161.7,0.4090.0000,-0.0025,1.5881,0,0,0,1,1
4,0,39.007,125.76,204.085,-5.213,173,1.6250.0000,-0.0094,1.6009,0,0,0,1,1
5,0,39.0082,125.7598,262.557,-8.416,183,5.3150.0000,-0.029,1.6168,0,0,0,1,1
6,0,39.0096,125.7595,331.593,-12.38,191.6,11.580.0000,-0.0603,1.6353,0,0,0,1,1
7,0,39.0109,125.7591,410.988,-17.04,198.7,20.410.0000,-0.102,1.6564,0,0,0,1,1
8,0,39.0123,125.7587,500.534,-22.27,204,31.660.0000,-0.1531,1.6795,0,0,0,1,1
9,0,39.0137,125.7583,600.024,-27.89,207.2,45.090.0000,-0.2124,1.7046,0,0,0,1,1
10,0,39.0151,125.7578,709.251,-33.69,208.2,60.390.0000,-0.2788,1.7312,0,0,0,1,1
11,0,39.0165,125.7573,828.008,-39.4,206.8,77.130.0000,-0.3512,1.7591,0,0,0,1,1
12,0,39.018,125.7568,956.086,-44.75,202.8,94.860.0000,-0.4284,1.788,0,0,0,1,1
13,0,39.0194,125.7562,1093.28,-49.46,196.3,113.10.0000,-0.5094,1.8176,0,0,0,1,1
14,0,39.0209,125.7556,1239.38,-53.26,187.5,131.30.0000,-0.5928,1.8476,0,0,0,1,1
15,0,39.0223,125.755,1394.18,-55.93,176.5,1490,-0.6778,1.8777,0,0,0,1,1
16,0,39.0238,125.7543,1557.48,-57.33,163.7,165.90.0000,-0.763,1.9076,0,0,0,1,1
17,0,39.0252,125.7536,1729.06,-57.4,149.6,181.50.0000,-0.8474,1.9371,0,0,0,1,1
18,0,39.0266,125.753,1908.72,-56.14,134.7,195.50.0000,-0.9298,1.9658,0,0,0,1,1
19,0,39.0281,125.7523,2096.26,-53.68,119.3,2080,-1.0091,1.9935,0,0,0,1,1
20,0,39.0295,125.7515,2291.45,-50.21,104.2,218.70.0000,-1.0842,2.0198,0,0,0,1,1
21,0,39.0308,125.7508,2494.11,-46.01,89.76,227.80.0000,-1.154,2.0445,0,0,0,1,1
22,0,39.0322,125.7501,2704.01,-41.39,76.41,235.40.0000,-1.2172,2.0672,0,0,0,1,1
23,0,39.0335,125.7494,2920.96,-36.71,64.56,241.80.0000,-1.2728,2.0878,0,0,0,1,1
24,0,39.0348,125.7486,3144.75,-32.33,54.55,247.20.0000,-1.3197,2.1058,0,0,0,1,1
25,0,39.036,125.7479,3375.16,-28.65,46.69,251.90.0000,-1.3567,2.1211,0,0,0,1,1
26,0,39.0372,125.7472,3611.99,-26.01,41.26,256.20.0000,-1.3827,2.1332,0,0,0,1,1
27,0,39.0383,125.7465,3855.04,-24.78,38.56,260.20.0000,-1.3965,2.142,0,0,0,1,1
28,0,39.0394,125.7458,4104.1,-25.28,38.9,264.20.0000,-1.397,2.1471,0,0,0,1,1
29,0,39.0405,125.7451,4358.95,-27.8,42.67,268.10.0000,-1.3831,2.1483,0,0,0,1,1
30,0,39.0415,125.7444,4619.4,-32.56,50.32,271.60.0000,-1.3536,2.1451,0,0,0,1,1
31,0,39.0424,125.7437,4885.23,-39.72,62.42,274.50.0000,-1.3075,2.1375,0,0,0,1,1
32,0,39.0432,125.7431,5156.25,-49.26,79.59,275.70.0000,-1.2435,2.125,0,0,0,1,1
33,0,39.0441,125.7424,5430.15,-60.43,101.2,274.60.0000,-1.1653,2.109,0,0,0,1,1
34,0,39.045,125.7417,5698.37,-70.88,122.3,2720,-1.0915,2.0959,0,0,0,1,1
35,0,39.0461,125.7408,5960.5,-80.58,142.2,268.50.0000,-1.024,2.0864,0,0,0,1,1
36,0,39.0474,125.7398,6217.16,-89.73,160.6,264.30.0000,-0.9627,2.0802,0,0,0,1,1
37,0,39.0488,125.7387,6468.95,-98.52,177.7,259.80.0000,-0.9072,2.0771,0,0,0,1,1
38,0,39.0503,125.7375,6716.46,-107.1,193.2,255.20.0000,-0.8574,2.0769,0,0,0,1,1
39,0,39.0519,125.7362,6960.31,-115.6,207.3,250.80.0000,-0.8129,2.0794,0,0,0,1,1
40,0,39.0536,125.7347,7201.1,-124.1,220.1,246.70.0000,-0.7734,2.0844,0,0,0,1,1
41,0,39.0555,125.7332,7439.42,-132.7,231.4,243.10.0000,-0.7389,2.0916,0,0,0,1,1
42,0,39.0575,125.7315,7675.88,-141.5,241.5,2400,-0.7089,2.1008,0,0,0,1,1
43,0,39.0595,125.7298,7911.09,-150.4,250.3,237.70.0000,-0.6833,2.1119,0,0,0,1,1
44,0,39.0617,125.7279,8145.65,-159.5,257.9,236.20.0000,-0.6618,2.1246,0,0,0,1,1
45,0,39.0639,125.726,8380.16,-168.7,264.4,235.60.0000,-0.6441,2.1388,0,0,0,1,1
46,0,39.0662,125.7239,8615.22,-178.1,269.9,235.80.0000,-0.6301,2.1541,0,0,0,1,1
47,0,39.0686,125.7218,8851.45,-187.5,274.3,236.90.0000,-0.6194,2.1704,0,0,0,1,1
48,0,39.071,125.7196,9089.43,-197,277.9,238.90.0000,-0.6117,2.1875,0,0,0,1,1
49,0,39.0735,125.7172,9329.77,-206.4,280.5,241.90.0000,-0.607,2.2052,0,0,0,1,1
50,0,39.0761,125.7148,9573.09,-215.8,282.5,245.70.0000,-0.6048,2.2232,0,0,0,1,1
51,0,39.0787,125.7123,9819.97,-225,283.7,250.30.0000,-0.6049,2.2414,0,0,0,1,1
52,0,39.0813,125.7097,10071,-234,284.3,255.80.0000,-0.6072,2.2595,0,0,0,1,1
53,0,39.084,125.707,10326.9,-242.7,284.3,2620,-0.6113,2.2773,0,0,0,1,1
54,0,39.0867,125.7042,10588.1,-251,284,268.90.0000,-0.6169,2.2947,0,0,0,1,1
55,0,39.0894,125.7014,10855.3,-259,283.3,276.30.0000,-0.6239,2.3113,0,0,0,1,1
56,0,39.0921,125.6985,11129.1,-266.5,282.5,284.40.0000,-0.6321,2.327,0,0,0,1,1
57,0,39.0949,125.6955,11410,-273.5,281.6,292.80.0000,-0.641,2.3417,0,0,0,1,1
58,0,39.0976,125.6924,11698.8,-280,280.7,301.70.0000,-0.6505,2.3549,0,0,0,1,1
59,0,39.1004,125.6892,11995.9,-285.9,280,310.80.0000,-0.6604,2.3667,0,0,0,1,1
60,0,39.1031,125.686,12302.1,-291.3,279.6,320.10.0000,-0.6703,2.3767,0,0,0,1,1
61,0,39.1058,125.6827,12617.9,-296.1,279.7,329.50.0000,-0.6801,2.3847,0,0,0,1,1
62,0,39.1085,125.6793,12943.8,-300.4,280.5,338.80.0000,-0.6894,2.3905,0,0,0,1,1
63,0,39.1112,125.6759,13280.6,-304.2,282,3480,-0.6981,2.394,0,0,0,1,1
64,0,39.1138,125.6724,13628.8,-307.4,284.5,3570,-0.7059,2.3948,0,0,0,1,1
65,0,39.1164,125.6689,13988.9,-310.1,288.1,365.60.0000,-0.7125,2.3929,0,0,0,1,1
66,0,39.119,125.6653,14359.4,-312.8,292.3,373.90.0000,-0.718,2.3899,0,0,0,1,1
67,0,39.1217,125.6616,14738.8,-315.7,296.9,3820,-0.7224,2.3868,0,0,0,1,1
68,0,39.1244,125.658,15126.8,-319,301.9,389.70.0000,-0.7258,2.3836,0,0,0,1,1
69,0,39.1271,125.6543,15523,-322.5,307.3,397.20.0000,-0.7282,2.3803,0,0,0,1,1
70,0,39.1299,125.6505,15926.9,-326.3,313.1,404.50.0000,-0.7297,2.3769,0,0,0,1,1
71,0,39.1327,125.6467,16338.2,-330.4,319.2,411.40.0000,-0.7303,2.3734,0,0,0,1,1
72,0,39.1356,125.6429,16756.3,-334.8,325.8,418.10.0000,-0.7299,2.3699,0,0,0,1,1
73,0,39.1386,125.639,17181,-339.6,332.8,424.40.0000,-0.7287,2.3663,0,0,0,1,1
74,0,39.1416,125.6351,17611.7,-344.6,340.2,430.40.0000,-0.7266,2.3627,0,0,0,1,1
75,0,39.1447,125.6311,18048,-350,348,436.10.0000,-0.7237,2.359,0,0,0,1,1
76,0,39.1479,125.627,18489.6,-355.7,356.2,441.50.0000,-0.72,2.3554,0,0,0,1,1
77,0,39.1511,125.6229,18936,-361.7,364.9,446.50.0000,-0.7155,2.3518,0,0,0,1,1
78,0,39.1545,125.6187,19386.8,-368,373.9,451.20.0000,-0.7103,2.3482,0,0,0,1,1
79,0,39.1579,125.6144,19841.6,-374.6,383.4,455.50.0000,-0.7044,2.3447,0,0,0,1,1
80,0,39.1613,125.61,20300,-381.6,393.2,459.40.0000,-0.6977,2.3412,0,0,0,1,1
81,0,39.1649,125.6056,20761.4,-388.9,403.5,462.90.0000,-0.6904,2.3378,0,0,0,1,1
82,0,39.1686,125.601,21225.7,-396.5,414.2,4660,-0.6825,2.3344,0,0,0,1,1
83,0,39.1723,125.5964,21692.2,-404.5,425.2,468.70.0000,-0.6739,2.3312,0,0,0,1,1
84,0,39.1762,125.5917,22160.6,-412.7,436.6,470.90.0000,-0.6647,2.3281,0,0,0,1,1
85,0,39.1801,125.5869,22630.5,-421.3,448.4,472.60.0000,-0.655,2.3251,0,0,0,1,1
86,0,39.1842,125.5819,23101.4,-430.3,460.5,473.90.0000,-0.6447,2.3223,0,0,0,1,1
87,0,39.1883,125.5769,23573,-439.6,473,474.70.0000,-0.6339,2.3196,0,0,0,1,1
88,0,39.1926,125.5718,24044.8,-449.2,485.7,4750,-0.6227,2.3171,0,0,0,1,1
89,0,39.197,125.5665,24516.4,-459.1,498.8,474.80.0000,-0.6109,2.3148,0,0,0,1,1
90,0,39.2014,125.5612,24987.4,-469.4,512.2,4740,-0.5988,2.3127,0,0,0,1,1
91,0,39.2061,125.5557,25457.3,-480,525.7,472.70.0000,-0.5862,2.3108,0,0,0,1,1
92,0,39.2108,125.5501,25925.8,-491,539.6,470.90.0000,-0.5732,2.3091,0,0,0,1,1
93,0,39.2157,125.5443,26392.5,-502.3,553.6,468.50.0000,-0.5599,2.3077,0,0,0,1,1
94,0,39.2206,125.5384,26856.8,-514,567.7,465.60.0000,-0.5462,2.3065,0,0,0,1,1
95,0,39.2258,125.5324,27318.4,-526,582.1,4620,-0.5323,2.3057,0,0,0,1,1
96,0,39.231,125.5263,27776.9,-538.4,596.5,4580,-0.518,2.3051,0,0,0,1,1
97,0,39.2364,125.52,28231.9,-551.2,611,453.30.0000,-0.5035,2.3048,0,0,0,1,1
98,0,39.2419,125.5136,28682.8,-564.2,625.5,448.20.0000,-0.489,2.3047,0,0,0,1,1
99,0,39.2476,125.507,29129.4,-577.3,640.1,443.30.0000,-0.475,2.3046,0,0,0,1,1
100,0,39.2534,125.5002,29571.5,-590.3,654.7,438.50.0000,-0.4616,2.3046,0,0,0,1,1
101,0,39.2593,125.4933,30009.2,-603.5,669.3,433.80.0000,-0.4486,2.3045,0,0,0,1,1
102,0,39.2654,125.4863,30442.6,-616.6,684,429.20.0000,-0.4361,2.3044,0,0,0,1,1
103,0,39.2716,125.479,30871.7,-629.7,698.7,424.70.0000,-0.4241,2.3043,0,0,0,1,1
104,0,39.2779,125.4717,31296.5,-642.9,713.4,420.30.0000,-0.4126,2.3043,0,0,0,1,1
105,0,39.2844,125.4642,31716.9,-656.1,728.1,4160,-0.4014,2.3042,0,0,0,1,1
106,0,39.291,125.4565,32133.1,-669.3,742.8,411.90.0000,-0.3907,2.3041,0,0,0,1,1
107,0,39.2977,125.4487,32545.1,-682.5,757.6,407.80.0000,-0.3804,2.3041,0,0,0,1,1
108,0,39.3046,125.4407,32952.8,-695.6,772.3,403.70.0000,-0.3705,2.304,0,0,0,1,1
109,0,39.3115,125.4326,33356.3,-708.8,787,399.80.0000,-0.3609,2.304,0,0,0,1,1
110,0,39.3187,125.4243,33755.7,-722,801.7,395.90.0000,-0.3517,2.304,0,0,0,1,1
111,0,39.3259,125.4159,34150.9,-735.2,816.3,392.10.0000,-0.3428,2.304,0,0,0,1,1
112,0,39.3333,125.4073,34541.9,-748.4,830.9,388.40.0000,-0.3343,2.304,0,0,0,1,1
113,0,39.3408,125.3986,34928.9,-761.5,845.5,384.70.0000,-0.326,2.304,0,0,0,1,1
114,0,39.3484,125.3897,35311.7,-774.6,860,381.10.0000,-0.318,2.304,0,0,0,1,1
115,0,39.3561,125.3807,35690.5,-787.7,874.4,377.40.0000,-0.3103,2.3041,0,0,0,1,1
116,0,39.364,125.3716,36065.2,-800.8,888.8,373.80.0000,-0.3029,2.3041,0,0,0,1,1
117,0,39.372,125.3622,36435.9,-813.8,903.1,370.30.0000,-0.2956,2.3042,0,0,0,1,1
118,0,39.3801,125.3528,36802.6,-826.8,917.3,366.70.0000,-0.2886,2.3044,0,0,0,1,1
119,0,39.3883,125.3431,37165.2,-839.8,931.4,363.10.0000,-0.2818,2.3045,0,0,0,1,1
120,0,39.3967,125.3334,37524,-852.7,945.4,359.50.0000,-0.2752,2.3047,0,0,0,1,1
121,0,39.4052,125.3235,37878.8,-865.5,959.2,355.80.0000,-0.2687,2.3049,0,0,0,1,1
122,0,39.4138,125.3134,38229.6,-878.3,972.9,352.10.0000,-0.2624,2.3051,0,0,0,1,1
123,0,39.4225,125.3032,38576.6,-891.1,986.5,348.30.0000,-0.2562,2.3054,0,0,0,1,1
124,0,39.4314,125.2928,38919.6,-903.8,999.9,344.40.0000,-0.2501,2.3057,0,0,0,1,1
125,0,39.4403,125.2823,39258.9,-916.4,1013,340.30.0000,-0.2442,2.3061,0,0,0,1,1
126,0,39.4494,125.2717,39594.2,-928.9,1026,336.20.0000,-0.2383,2.3064,0,0,0,1,1
127,0,39.4586,125.2609,39925.8,-941.3,1039,331.90.0000,-0.2325,2.3068,0,0,0,1,1
128,0,39.4679,125.2499,40253.6,-953.7,1052,327.50.0000,-0.2267,2.3073,0,0,0,1,1
129,0,39.4774,125.2388,40577.6,-965.9,1064,322.80.0000,-0.2209,2.3078,0,0,0,1,1
130,0,39.4869,125.2276,40897.8,-978.1,1077,317.90.0000,-0.2152,2.3083,0,0,0,1,1
131,0,39.4966,125.2162,41213.3,-990.1,1089,313.10.0000,-0.2096,2.3088,0,0,0,1,1
132,0,39.5064,125.2047,41524.1,-1002,1101,308.30.0000,-0.2043,2.3093,0,0,0,1,1
133,0,39.5162,125.193,41830.1,-1014,1112,303.60.0000,-0.1991,2.3097,0,0,0,1,1
134,0,39.5262,125.1812,42131.6,-1025,1124,2990,-0.194,2.3101,0,0,0,1,1
135,0,39.5363,125.1693,42428.5,-1036,1136,294.40.0000,-0.1892,2.3105,0,0,0,1,1
136,0,39.5465,125.1573,42720.9,-1048,1147,2900,-0.1845,2.3108,0,0,0,1,1
137,0,39.5568,125.1451,43008.9,-1059,1159,285.60.0000,-0.18,2.3111,0,0,0,1,1
138,0,39.5672,125.1328,43292.6,-1069,1170,281.30.0000,-0.1756,2.3113,0,0,0,1,1
139,0,39.5777,125.1203,43572.1,-1080,1181,2770,-0.1714,2.3115,0,0,0,1,1
140,0,39.5882,125.1078,43847.4,-1091,1192,272.90.0000,-0.1673,2.3117,0,0,0,1,1
141,0,39.5989,125.0951,44118.5,-1101,1203,268.90.0000,-0.1634,2.3119,0,0,0,1,1
142,0,39.6097,125.0823,44385.7,-1111,1214,264.90.0000,-0.1596,2.3121,0,0,0,1,1
143,0,39.6206,125.0694,44648.9,-1122,1225,261.10.0000,-0.1559,2.3122,0,0,0,1,1
144,0,39.6316,125.0563,44908.2,-1132,1235,257.30.0000,-0.1524,2.3123,0,0,0,1,1
145,0,39.6426,125.0432,45163.7,-1141,1246,253.60.0000,-0.149,2.3124,0,0,0,1,1
146,0,39.6538,125.0299,45415.5,-1151,1256,2500,-0.1457,2.3125,0,0,0,1,1
147,0,39.665,125.0165,45663.7,-1161,1267,246.50.0000,-0.1425,2.3126,0,0,0,1,1
148,0,39.6764,125.003,45908.3,-1170,1277,2430,-0.1394,2.3127,0,0,0,1,1
149,0,39.6878,124.9894,46149.3,-1180,1287,239.60.0000,-0.1364,2.3127,0,0,0,1,1
150,0,39.6993,124.9756,46387,-1189,1297,236.30.0000,-0.1336,2.3128,0,0,0,1,1
151,0,39.7109,124.9618,46621.3,-1198,1307,233.10.0000,-0.1308,2.3128,0,0,0,1,1
152,0,39.7226,124.9479,46852.3,-1207,1316,2300,-0.1281,2.3128,0,0,0,1,1
153,0,39.7344,124.9338,47080.1,-1216,1326,226.90.0000,-0.1255,2.3129,0,0,0,1,1
154,0,39.7463,124.9196,47304.8,-1225,1335,223.90.0000,-0.1229,2.3129,0,0,0,1,1
155,0,39.7582,124.9054,47526.4,-1233,1345,220.90.0000,-0.1205,2.313,0,0,0,1,1
156,0,39.7703,124.891,47745.1,-1242,1354,2180,-0.1181,2.313,0,0,0,1,1
157,0,39.7824,124.8765,47960.9,-1250,1363,215.10.0000,-0.1158,2.3131,0,0,0,1,1
158,0,39.7946,124.862,48173.8,-1259,1372,212.20.0000,-0.1135,2.3131,0,0,0,1,1
159,0,39.8068,124.8473,48384,-1267,1381,209.40.0000,-0.1113,2.3132,0,0,0,1,1
160,0,39.8192,124.8326,48591.5,-1275,1390,206.70.0000,-0.1091,2.3133,0,0,0,1,1
161,0,39.8316,124.8177,48796.4,-1283,1398,203.90.0000,-0.107,2.3134,0,0,0,1,1
162,0,39.8441,124.8028,48998.8,-1292,1407,201.10.0000,-0.1049,2.3135,0,0,0,1,1
163,0,39.8567,124.7877,49198.6,-1300,1415,198.40.0000,-0.1029,2.3137,0,0,0,1,1
164,0,39.8693,124.7726,49395.8,-1307,1423,195.80.0000,-0.101,2.3138,0,0,0,1,1
165,0,39.8821,124.7573,49590.5,-1315,1431,193.20.0000,-0.0991,2.3139,0,0,0,1,1
166,0,39.8949,124.742,49782.7,-1323,1440,190.70.0000,-0.0972,2.3141,0,0,0,1,1
167,0,39.9077,124.7266,49972.5,-1331,1447,188.30.0000,-0.0955,2.3142,0,0,0,1,1
168,0,39.9207,124.7111,50159.9,-1338,1455,185.90.0000,-0.0938,2.3144,0,0,0,1,1
169,0,39.9337,124.6955,50345,-1346,1463,183.60.0000,-0.0921,2.3145,0,0,0,1,1
170,0,39.9467,124.6798,50527.8,-1353,1471,181.40.0000,-0.0905,2.3146,0,0,0,1,1
171,0,39.9599,124.664,50708.5,-1361,1478,179.30.0000,-0.089,2.3148,0,0,0,1,1
172,0,39.9731,124.6482,50887,-1368,1486,177.20.0000,-0.0875,2.3149,0,0,0,1,1
173,0,39.9863,124.6322,51063.4,-1375,1493,175.20.0000,-0.0861,2.3151,0,0,0,1,1
174,0,39.9997,124.6162,51237.8,-1382,1500,173.20.0000,-0.0847,2.3152,0,0,0,1,1
175,0,40.0131,124.6001,51410.3,-1389,1508,171.30.0000,-0.0834,2.3153,0,0,0,1,1
176,0,40.0266,124.5839,51580.8,-1396,1515,169.50.0000,-0.0821,2.3155,0,0,0,1,1
177,0,40.0401,124.5676,51749.5,-1403,1522,167.70.0000,-0.0808,2.3156,0,0,0,1,1
178,0,40.0537,124.5512,51916.4,-1410,1529,1660,-0.0797,2.3158,0,0,0,1,1
179,0,40.0673,124.5348,52081.6,-1417,1536,164.40.0000,-0.0785,2.3159,0,0,0,1,1
180,0,40.081,124.5182,52245.1,-1423,1542,162.80.0000,-0.0774,2.3161,0,0,0,1,1
181,0,40.0948,124.5016,52407,-1430,1549,161.30.0000,-0.0763,2.3162,0,0,0,1,1
182,0,40.1086,124.4849,52567.3,-1437,1556,159.80.0000,-0.0753,2.3164,0,0,0,1,1
183,0,40.1225,124.4681,52726.1,-1443,1562,158.40.0000,-0.0743,2.3165,0,0,0,1,1
184,0,40.1365,124.4513,52883.5,-1450,1569,1570,-0.0734,2.3167,0,0,0,1,1
185,0,40.1505,124.4343,53039.5,-1456,1575,155.70.0000,-0.0725,2.3168,0,0,0,1,1
186,0,40.1646,124.4173,53194.1,-1462,1582,154.40.0000,-0.0716,2.317,0,0,0,1,1
187,0,40.1787,124.4002,53347.5,-1468,1588,153.20.0000,-0.0707,2.3171,0,0,0,1,1
188,0,40.1929,124.3831,53499.7,-1475,1594,1520,-0.0699,2.3173,0,0,0,1,1
189,0,40.2071,124.3658,53650.7,-1481,1600,150.90.0000,-0.0691,2.3175,0,0,0,1,1
190,0,40.2214,124.3485,53800.7,-1487,1606,149.80.0000,-0.0683,2.3176,0,0,0,1,1
191,0,40.2357,124.3311,53949.6,-1493,1612,148.70.0000,-0.0676,2.3178,0,0,0,1,1
192,0,40.2501,124.3137,54097.5,-1499,1618,147.70.0000,-0.0669,2.3179,0,0,0,1,1
193,0,40.2645,124.2962,54244.5,-1504,1624,146.70.0000,-0.0662,2.3181,0,0,0,1,1
194,0,40.279,124.2786,54390.6,-1510,1629,145.80.0000,-0.0655,2.3182,0,0,0,1,1
195,0,40.2936,124.2609,54535.9,-1516,1635,144.80.0000,-0.0649,2.3184,0,0,0,1,1
196,0,40.3082,124.2432,54680.3,-1522,1641,143.90.0000,-0.0642,2.3186,0,0,0,1,1
197,0,40.3228,124.2253,54823.7,-1527,1646,1430,-0.0636,2.3187,0,0,0,1,1
198,0,40.3375,124.2075,54966.3,-1533,1652,142.10.0000,-0.063,2.3189,0,0,0,1,1
199,0,40.3522,124.1895,55107.9,-1538,1657,141.30.0000,-0.0624,2.3191,0,0,0,1,1
200,0,40.367,124.1715,55248.7,-1544,1663,140.40.0000,-0.0618,2.3192,0,0,0,1,1
201,0,40.3818,124.1534,55388.6,-1549,1668,139.60.0000,-0.0612,2.3194,0,0,0,1,1
202,0,40.3967,124.1353,55527.7,-1555,1673,138.70.0000,-0.0607,2.3196,0,0,0,1,1
203,0,40.4116,124.1171,55666,-1560,1678,137.90.0000,-0.0601,2.3197,0,0,0,1,1
204,0,40.4266,124.0988,55803.5,-1565,1683,137.10.0000,-0.0596,2.3199,0,0,0,1,1
205,0,40.4416,124.0805,55940.1,-1571,1688,136.30.0000,-0.0591,2.3201,0,0,0,1,1
206,0,40.4566,124.062,56076.1,-1576,1693,135.60.0000,-0.0585,2.3202,0,0,0,1,1
207,0,40.4717,124.0436,56211.2,-1581,1698,134.80.0000,-0.058,2.3204,0,0,0,1,1
208,0,40.4869,124.025,56345.6,-1586,1703,134.10.0000,-0.0576,2.3206,0,0,0,1,1
209,0,40.5021,124.0064,56479.3,-1591,1708,133.40.0000,-0.0571,2.3208,0,0,0,1,1
210,0,40.5173,123.9878,56612.3,-1596,1713,132.70.0000,-0.0566,2.3209,0,0,0,1,1
211,0,40.5326,123.9691,56744.7,-1601,1717,1320,-0.0562,2.3211,0,0,0,1,1
212,0,40.5479,123.9503,56876.3,-1606,1722,131.30.0000,-0.0557,2.3213,0,0,0,1,1
213,0,40.5632,123.9314,57007.3,-1611,1726,130.70.0000,-0.0553,2.3215,0,0,0,1,1
214,0,40.5786,123.9125,57137.7,-1615,1731,1300,-0.0549,2.3216,0,0,0,1,1
215,0,40.5941,123.8936,57267.4,-1620,1735,129.40.0000,-0.0545,2.3218,0,0,0,1,1
216,0,40.6095,123.8745,57396.5,-1625,1740,128.80.0000,-0.0541,2.322,0,0,0,1,1
217,0,40.625,123.8554,57525.1,-1629,1744,128.20.0000,-0.0537,2.3222,0,0,0,1,1
218,0,40.6406,123.8363,57653.1,-1634,1748,127.70.0000,-0.0533,2.3224,0,0,0,1,1
219,0,40.6562,123.8171,57780.5,-1638,1753,127.10.0000,-0.0529,2.3225,0,0,0,1,1
220,0,40.6718,123.7978,57907.4,-1643,1757,126.60.0000,-0.0526,2.3227,0,0,0,1,1
221,0,40.6875,123.7785,58033.8,-1647,1761,126.10.0000,-0.0522,2.3229,0,0,0,1,1
222,0,40.7032,123.7592,58159.7,-1652,1765,125.60.0000,-0.0519,2.3231,0,0,0,1,1
223,0,40.7189,123.7397,58285.1,-1656,1769,125.10.0000,-0.0516,2.3233,0,0,0,1,1
224,0,40.7347,123.7203,58410,-1661,1773,124.70.0000,-0.0513,2.3235,0,0,0,1,1
225,0,40.7505,123.7007,58534.5,-1665,1777,124.30.0000,-0.051,2.3236,0,0,0,1,1
226,0,40.7663,123.6811,58658.6,-1669,1781,123.80.0000,-0.0507,2.3238,0,0,0,1,1
227,0,40.7822,123.6615,58782.2,-1673,1785,123.40.0000,-0.0504,2.324,0,0,0,1,1
228,0,40.7981,123.6418,58905.4,-1677,1788,1230,-0.0501,2.3242,0,0,0,1,1
229,0,40.814,123.622,59028.2,-1682,1792,122.60.0000,-0.0498,2.3244,0,0,0,1,1
230,0,40.83,123.6022,59150.5,-1686,1796,122.20.0000,-0.0496,2.3246,0,0,0,1,1
231,0,40.846,123.5824,59272.3,-1690,1799,121.70.0000,-0.0493,2.3248,0,0,0,1,1
232,0,40.862,123.5625,59393.7,-1694,1803,121.20.0000,-0.049,2.325,0,0,0,1,1
233,0,40.878,123.5425,59514.6,-1698,1806,120.70.0000,-0.0486,2.3252,0,0,0,1,1
234,0,40.8941,123.5225,59634.9,-1702,1810,120.20.0000,-0.0483,2.3253,0,0,0,1,1
235,0,40.9103,123.5025,59754.7,-1706,1813,119.60.0000,-0.048,2.3255,0,0,0,1,1
236,0,40.9264,123.4823,59874,-1709,1817,119.10.0000,-0.0477,2.3257,0,0,0,1,1
237,0,40.9426,123.4622,59992.7,-1713,1820,118.50.0000,-0.0474,2.3259,0,0,0,1,1
238,0,40.9588,123.442,60110.8,-1717,1824,117.90.0000,-0.047,2.3261,0,0,0,1,1
239,0,40.9751,123.4217,60228.4,-1721,1827,117.30.0000,-0.0467,2.3263,0,0,0,1,1
240,0,40.9913,123.4014,60345.3,-1724,1830,116.70.0000,-0.0464,2.3265,0,0,0,1,1
241,0,41.0076,123.3811,60461.7,-1728,1833,1160,-0.046,2.3267,0,0,0,1,1
242,0,41.0239,123.3607,60577.3,-1732,1836,115.40.0000,-0.0457,2.3269,0,0,0,1,1
243,0,41.0403,123.3402,60692.4,-1735,1839,114.70.0000,-0.0453,2.3271,0,0,0,1,1
244,0,41.0567,123.3197,60806.8,-1739,1843,1140,-0.045,2.3273,0,0,0,1,1
245,0,41.0731,123.2992,60920.5,-1743,1846,113.30.0000,-0.0446,2.3275,0,0,0,1,1
246,0,41.0895,123.2786,61033.5,-1746,1849,112.60.0000,-0.0443,2.3277,0,0,0,1,1
247,0,41.106,123.2579,61145.7,-1750,1852,111.90.0000,-0.0439,2.3279,0,0,0,1,1
248,0,41.1225,123.2373,61257.3,-1753,1854,111.10.0000,-0.0435,2.3281,0,0,0,1,1
249,0,41.139,123.2165,61368.2,-1757,1857,110.40.0000,-0.0432,2.3283,0,0,0,1,1
250,0,41.1555,123.1957,61478.2,-1760,1860,109.60.0000,-0.0428,2.3285,0,0,0,1,1
251,0,41.1721,123.1749,61587.5,-1763,1863,108.80.0000,-0.0424,2.3287,0,0,0,1,1
252,0,41.1887,123.1541,61696.1,-1767,1866,1080,-0.042,2.3289,0,0,0,1,1
253,0,41.2053,123.1332,61803.8,-1770,1868,107.20.0000,-0.0416,2.3291,0,0,0,1,1
254,0,41.2219,123.1122,61910.7,-1773,1871,106.40.0000,-0.0413,2.3293,0,0,0,1,1
255,0,41.2386,123.0912,62016.8,-1777,1874,105.60.0000,-0.0409,2.3295,0,0,0,1,1
256,0,41.2553,123.0702,62122,-1780,1877,104.70.0000,-0.0405,2.3297,0,0,0,1,1
257,0,41.272,123.0491,62226.4,-1783,1879,103.90.0000,-0.0401,2.33,0,0,0,1,1
258,0,41.2887,123.0279,62329.9,-1786,1882,1030,-0.0397,2.3302,0,0,0,1,1
259,0,41.3055,123.0068,62432.6,-1789,1884,102.20.0000,-0.0393,2.3304,0,0,0,1,1
260,0,41.3222,122.9856,62534.3,-1792,1887,101.30.0000,-0.0389,2.3306,0,0,0,1,1
261,0,41.339,122.9643,62635.1,-1796,1889,100.40.0000,-0.0385,2.3308,0,0,0,1,1
262,0,41.3559,122.943,62734.9,-1799,1892,99.40.0000,-0.0381,2.331,0,0,0,1,1
263,0,41.3727,122.9217,62833.7,-1802,1894,98.390.0000,-0.0376,2.3312,0,0,0,1,1
264,0,41.3896,122.9003,62931.4,-1805,1897,97.350.0000,-0.0372,2.3314,0,0,0,1,1
265,0,41.4064,122.8789,63028.1,-1808,1899,96.280.0000,-0.0367,2.3316,0,0,0,1,1
266,0,41.4233,122.8574,63123.7,-1811,1901,95.160.0000,-0.0362,2.3318,0,0,0,1,1
267,0,41.4403,122.8359,63218.2,-1814,1904,94.010.0000,-0.0357,2.3321,0,0,0,1,1
268,0,41.4572,122.8144,63311.5,-1817,1906,92.820.0000,-0.0352,2.3323,0,0,0,1,1
269,0,41.4742,122.7928,63403.6,-1820,1908,91.60.0000,-0.0347,2.3325,0,0,0,1,1
270,0,41.4911,122.7712,63494.4,-1823,1910,90.340.0000,-0.0342,2.3327,0,0,0,1,1
271,0,41.5081,122.7495,63584,-1826,1913,89.050.0000,-0.0337,2.3329,0,0,0,1,1
272,0,41.5252,122.7278,63672.3,-1829,1915,87.720.0000,-0.0331,2.3331,0,0,0,1,1
273,0,41.5422,122.7061,63759.3,-1831,1917,86.360.0000,-0.0326,2.3334,0,0,0,1,1
274,0,41.5593,122.6843,63845,-1834,1919,84.970.0000,-0.032,2.3336,0,0,0,1,1
275,0,41.5763,122.6625,63929.2,-1837,1921,83.540.0000,-0.0314,2.3338,0,0,0,1,1
276,0,41.5934,122.6406,64012,-1840,1924,82.080.0000,-0.0308,2.334,0,0,0,1,1
277,0,41.6106,122.6187,64093.4,-1843,1926,80.590.0000,-0.0302,2.3342,0,0,0,1,1
278,0,41.6277,122.5968,64173.2,-1846,1928,79.060.0000,-0.0296,2.3344,0,0,0,1,1
279,0,41.6448,122.5748,64251.6,-1849,1930,77.510.0000,-0.029,2.3347,0,0,0,1,1
280,0,41.662,122.5528,64328.4,-1851,1932,75.930.0000,-0.0284,2.3349,0,0,0,1,1
281,0,41.6792,122.5307,64403.6,-1854,1934,74.310.0000,-0.0277,2.3351,0,0,0,1,1
282,0,41.6964,122.5086,64477.2,-1857,1936,72.670.0000,-0.0271,2.3353,0,0,0,1,1
283,0,41.7136,122.4865,64549.2,-1860,1938,710,-0.0264,2.3356,0,0,0,1,1
284,0,41.7309,122.4643,64619.4,-1862,1940,69.30.0000,-0.0258,2.3358,0,0,0,1,1
285,0,41.7482,122.4421,64688,-1865,1942,67.570.0000,-0.0251,2.336,0,0,0,1,1
286,0,41.7654,122.4198,64754.8,-1868,1944,65.810.0000,-0.0244,2.3362,0,0,0,1,1
287,0,41.7827,122.3975,64819.9,-1871,1946,64.030.0000,-0.0237,2.3365,0,0,0,1,1
288,0,41.8,122.3752,64883.1,-1873,1948,62.220.0000,-0.023,2.3367,0,0,0,1,1
289,0,41.8174,122.3528,64944.5,-1876,1950,60.380.0000,-0.0223,2.3369,0,0,0,1,1
290,0,41.8347,122.3304,65004.1,-1879,1952,58.520.0000,-0.0216,2.3371,0,0,0,1,1
291,0,41.8521,122.308,65061.7,-1882,1954,56.640.0000,-0.0209,2.3374,0,0,0,1,1
292,0,41.8695,122.2855,65117.4,-1884,1956,54.730.0000,-0.0201,2.3376,0,0,0,1,1
293,0,41.8869,122.263,65170.6,-1887,1958,52.760.0000,-0.0194,2.3378,0,0,0,1,1
294,0,41.9043,122.2404,65221.3,-1890,1960,50.740.0000,-0.0186,2.3381,0,0,0,1,1
295,0,41.9218,122.2178,65269.5,-1893,1962,48.660.0000,-0.0179,2.3383,0,0,0,1,1
296,0,41.9392,122.1951,65315.4,-1895,1964,46.550.0000,-0.0171,2.3385,0,0,0,1,1
297,0,41.9567,122.1724,65358.9,-1898,1966,44.40.0000,-0.0162,2.3387,0,0,0,1,1
298,0,41.9742,122.1497,65400.1,-1901,1968,42.220.0000,-0.0154,2.339,0,0,0,1,1
299,0,41.9918,122.1269,65439,-1904,1970,40.020.0000,-0.0146,2.3392,0,0,0,1,1
300,0,42.0093,122.1041,65475.8,-1907,1972,37.810.0000,-0.0138,2.3394,0,0,0,1,1
301,0,42.0269,122.0812,65510.5,-1910,1974,35.590.0000,-0.013,2.3397,0,0,0,1,1
302,0,42.0444,122.0583,65543.1,-1913,1976,33.370.0000,-0.0121,2.3399,0,0,0,1,1
303,0,42.062,122.0353,65573.7,-1916,1979,31.160.0000,-0.0113,2.3401,0,0,0,1,1
304,0,42.0797,122.0124,65602.4,-1919,1981,28.970.0000,-0.0105,2.3404,0,0,0,1,1
305,0,42.0973,121.9893,65629.2,-1922,1983,26.80.0000,-0.0097,2.3406,0,0,0,1,1
306,0,42.1149,121.9663,65654.1,-1924,1985,24.670.0000,-0.0089,2.3408,0,0,0,1,1
307,0,42.1326,121.9432,65677.2,-1927,1986,22.580.0000,-0.0082,2.3411,0,0,0,1,1
308,0,42.1503,121.9201,65698.7,-1930,1988,20.530.0000,-0.0074,2.3413,0,0,0,1,1
309,0,42.1679,121.8969,65718.4,-1933,1990,18.550.0000,-0.0067,2.3416,0,0,0,1,1
310,0,42.1856,121.8737,65736.6,-1935,1992,16.630.0000,-0.006,2.3418,0,0,0,1,1
311,0,42.2034,121.8505,65753.2,-1938,1993,14.780.0000,-0.0053,2.342,0,0,0,1,1
312,0,42.2211,121.8272,65768.3,-1940,1995,13.010.0000,-0.0047,2.3423,0,0,0,1,1
313,0,42.2388,121.8039,65781.9,-1942,1996,11.330.0000,-0.0041,2.3425,0,0,0,1,1
314,0,42.2565,121.7806,65794.2,-1944,1997,9.7520.0000,-0.0035,2.3428,0,0,0,1,1
315,0,42.2743,121.7572,65805.2,-1946,1998,8.2780.0000,-0.003,2.343,0,0,0,1,1
316,0,42.292,121.7339,65814.9,-1948,1999,6.9180.0000,-0.0025,2.3433,0,0,0,1,1
317,0,42.3098,121.7105,65823.4,-1950,2000,5.6810.0000,-0.002,2.3435,0,0,0,1,1
318,0,42.3276,121.687,65830.7,-1952,2001,4.5750.0000,-0.0016,2.3438,0,0,0,1,1
319,0,42.3453,121.6636,65836.9,-1953,2001,3.6090.0000,-0.0013,2.344,0,0,0,1,1
320,0,42.3631,121.6401,65842.1,-1955,2002,2.790.0000,-0.001,2.3443,0,0,0,1,1
321,0,42.3809,121.6166,65846.3,-1956,2002,2.1270.0000,-0.0008,2.3446,0,0,0,1,1
322,0,42.3987,121.593,65849.6,-1957,2002,1.6280.0000,-0.0006,2.3448,0,0,0,1,1
323,0,42.4165,121.5695,65852,-1958,2002,1.3010.0000,-0.0005,2.3451,0,0,0,1,1
324,0,42.4343,121.5459,65853.5,-1958,2001,1.1540.0000,-0.0004,2.3453,0,0,0,1,1
325,0,42.4521,121.5223,65854.7,-1959,2001,1.110.0000,-0.0004,2.3456,0,0,0,1,1
326,0,42.4698,121.4987,65855.8,-1959,2000,1.0670.0000,-0.0004,2.3459,0,0,0,1,1
327,0,42.4876,121.4751,65856.8,-1960,2000,1.0230.0000,-0.0004,2.3461,0,0,0,1,1
328,0,42.5054,121.4514,65857.8,-1960,1999,0.97920.0000,-0.0003,2.3464,0,0,0,1,1
329,0,42.5232,121.4278,65858.7,-1961,1999,0.93540.0000,-0.0003,2.3467,0,0,0,1,1
330,0,42.5409,121.4041,65859.6,-1962,1998,0.89170.0000,-0.0003,2.3469,0,0,0,1,1
331,0,42.5587,121.3804,65860.4,-1962,1998,0.84820.0000,-0.0003,2.3472,0,0,0,1,1
332,0,42.5765,121.3567,65861.2,-1963,1997,0.8050.0000,-0.0003,2.3475,0,0,0,1,1
333,0,42.5942,121.333,65862,-1963,1997,0.76220.0000,-0.0003,2.3477,0,0,0,1,1
334,0,42.612,121.3093,65862.7,-1964,1996,0.71980.0000,-0.0003,2.348,0,0,0,1,1
335,0,42.6297,121.2856,65863.4,-1964,1996,0.6780.0000,-0.0002,2.3483,0,0,0,1,1
336,0,42.6475,121.2619,65864,-1965,1995,0.63690.0000,-0.0002,2.3486,0,0,0,1,1
337,0,42.6652,121.2381,65864.6,-1965,1994,0.59650.0000,-0.0002,2.3488,0,0,0,1,1
338,0,42.6829,121.2143,65865.2,-1966,1994,0.55690.0000,-0.0002,2.3491,0,0,0,1,1
339,0,42.7006,121.1905,65865.7,-1966,1993,0.51830.0000,-0.0002,2.3494,0,0,0,1,1
340,0,42.7184,121.1667,65866.2,-1967,1993,0.48070.0000,-0.0002,2.3496,0,0,0,1,1
341,0,42.7361,121.1429,65866.7,-1967,1992,0.44430.0000,-0.0002,2.3499,0,0,0,1,1
342,0,42.7538,121.1191,65867.1,-1968,1992,0.4090.0000,-0.0001,2.3502,0,0,0,1,1
343,0,42.7715,121.0953,65867.5,-1968,1991,0.37510.0000,-0.0001,2.3504,0,0,0,1,1
344,0,42.7892,121.0714,65867.9,-1969,1991,0.34260.0000,-0.0001,2.3507,0,0,0,1,1
345,0,42.8069,121.0476,65868.2,-1970,1990,0.31150.0000,-0.0001,2.351,0,0,0,1,1
346,0,42.8246,121.0237,65868.6,-1970,1990,0.28210.0000,-0.0001,2.3513,0,0,0,1,1
347,0,42.8423,120.9998,65868.8,-1971,1989,0.25430.0000,-0.0001,2.3515,0,0,0,1,1
348,0,42.86,120.9759,65869.1,-1971,1989,0.22830.0000,-0.0001,2.3518,0,0,0,1,1
349,0,42.8776,120.952,65869.3,-1972,1988,0.20420.0000,-0.0001,2.3521,0,0,0,1,1
350,0,42.8953,120.928,65869.6,-1972,1987,0.18210.0000,-0.0001,2.3524,0,0,0,1,1
351,0,42.913,120.9041,65869.8,-1973,1987,0.16190.0000,-0.0001,2.3526,0,0,0,1,1
352,0,42.9307,120.8801,65869.9,-1973,1986,0.1440.0000,-0.0001,2.3529,0,0,0,1,1
353,0,42.9483,120.8562,65870.1,-1974,1986,0.12830.0000,0,2.3532,0,0,0,1,1
354,0,42.966,120.8322,65870.2,-1974,1985,0.11490.0000,0,2.3534,0,0,0,1,1
355,0,42.9836,120.8082,65870.4,-1975,1985,0.10390.0000,0,2.3537,0,0,0,1,1
356,0,43.0013,120.7842,65870.5,-1976,1984,0.095450.0000,0,2.354,0,0,0,1,1
357,0,43.0189,120.7602,65870.6,-1976,1984,0.089420.0000,0,2.3543,0,0,0,1,1
358,0,43.0365,120.7361,65870.6,-1977,1983,0.084170.0000,0,2.3545,0,0,0,1,1
359,0,43.0542,120.7121,65870.7,-1977,1983,0.079630.0000,0,2.3548,0,0,0,1,1
360,0,43.0718,120.688,65870.8,-1978,1982,0.075860.0000,0,2.3551,0,0,0,1,1
361,0,43.0894,120.6639,65870.8,-1978,1982,0.072920.0000,0,2.3554,0,0,0,1,1
362,0,43.107,120.6398,65870.9,-1979,1981,0.070850.0000,0,2.3557,0,0,0,1,1
363,0,43.1246,120.6157,65871,-1979,1980,0.069710.0000,0,2.3559,0,0,0,1,1
364,0,43.1422,120.5916,65871,-1980,1980,0.069560.0000,0,2.3562,0,0,0,1,1
365,0,43.1599,120.5675,65871.1,-1981,1979,0.070440.0000,0,2.3565,0,0,0,1,1
366,0,43.1774,120.5433,65871.1,-1981,1979,0.072420.0000,0,2.3568,0,0,0,1,1
367,0,43.195,120.5192,65871.2,-1982,1978,0.075540.0000,0,2.3571,0,0,0,1,1
368,0,43.2126,120.495,65871.3,-1982,1978,0.079860.0000,0,2.3573,0,0,0,1,1
369,0,43.2302,120.4708,65871.3,-1983,1977,0.085440.0000,0,2.3576,0,0,0,1,1
370,0,43.2478,120.4466,65871.4,-1983,1977,0.092330.0000,0,2.3579,0,0,0,1,1
371,0,43.2654,120.4224,65871.5,-1984,1976,0.10060.0000,0,2.3582,0,0,0,1,1
372,0,43.2829,120.3982,65871.6,-1984,1975,0.11030.0000,0,2.3585,0,0,0,1,1
373,0,43.3005,120.3739,65871.7,-1985,1975,0.12140.0000,0,2.3587,0,0,0,1,1
374,0,43.318,120.3497,65871.8,-1985,1974,0.13410.0000,0,2.359,0,0,0,1,1
375,0,43.3356,120.3254,65872,-1986,1974,0.14830.0000,-0.0001,2.3593,0,0,0,1,1
376,0,43.3531,120.3011,65872.2,-1987,1973,0.16420.0000,-0.0001,2.3596,0,0,0,1,1
377,0,43.3707,120.2768,65872.3,-1987,1973,0.18180.0000,-0.0001,2.3599,0,0,0,1,1
378,0,43.3882,120.2525,65872.5,-1988,1972,0.20110.0000,-0.0001,2.3601,0,0,0,1,1
379,0,43.4057,120.2282,65872.8,-1988,1971,0.22220.0000,-0.0001,2.3604,0,0,0,1,1
380,0,43.4233,120.2038,65873,-1989,1971,0.24510.0000,-0.0001,2.3607,0,0,0,1,1
381,0,43.4408,120.1795,65873.3,-1989,1970,0.270.0000,-0.0001,2.361,0,0,0,1,1
382,0,43.4583,120.1551,65873.6,-1990,1970,0.29680.0000,-0.0001,2.3613,0,0,0,1,1
383,0,43.4758,120.1307,65873.9,-1990,1969,0.32560.0000,-0.0001,2.3616,0,0,0,1,1
384,0,43.4933,120.1063,65874.3,-1991,1969,0.35650.0000,-0.0001,2.3619,0,0,0,1,1
385,0,43.5108,120.0819,65874.6,-1992,1968,0.38960.0000,-0.0001,2.3621,0,0,0,1,1
386,0,43.5283,120.0575,65875.1,-1992,1967,0.42480.0000,-0.0002,2.3624,0,0,0,1,1
387,0,43.5458,120.033,65875.5,-1993,1967,0.46220.0000,-0.0002,2.3627,0,0,0,1,1
388,0,43.5633,120.0086,65876,-1993,1966,0.50190.0000,-0.0002,2.363,0,0,0,1,1
389,0,43.5808,119.9841,65876.5,-1994,1966,0.5440.0000,-0.0002,2.3633,0,0,0,1,1
390,0,43.5983,119.9596,65877.1,-1994,1965,0.58710.0000,-0.0002,2.3636,0,0,0,1,1
391,0,43.6157,119.9351,65877.7,-1995,1965,0.63050.0000,-0.0002,2.3639,0,0,0,1,1
392,0,43.6332,119.9106,65878.3,-1996,1964,0.67420.0000,-0.0002,2.3642,0,0,0,1,1
393,0,43.6507,119.8861,65879,-1996,1964,0.71820.0000,-0.0003,2.3644,0,0,0,1,1
394,0,43.6681,119.8616,65879.8,-1997,1963,0.76260.0000,-0.0003,2.3647,0,0,0,1,1
395,0,43.6856,119.837,65880.6,-1997,1962,0.80730.0000,-0.0003,2.365,0,0,0,1,1
396,0,43.703,119.8125,65881.4,-1998,1962,0.85240.0000,-0.0003,2.3653,0,0,0,1,1
397,0,43.7204,119.7879,65882.2,-1998,1961,0.89790.0000,-0.0003,2.3656,0,0,0,1,1
398,0,43.7379,119.7633,65883.2,-1999,1961,0.94390.0000,-0.0003,2.3659,0,0,0,1,1
399,0,43.7553,119.7387,65884.1,-2000,1960,0.99030.0000,-0.0004,2.3662,0,0,0,1,1
400,0,43.7727,119.7141,65885.1,-2000,1959,1.0370.0000,-0.0004,2.3665,0,0,0,1,1
401,0,43.7902,119.6894,65886.2,-2001,1959,1.0840.0000,-0.0004,2.3668,0,0,0,1,1
402,0,43.8076,119.6648,65887.3,-2001,1958,1.1320.0000,-0.0004,2.3671,0,0,0,1,1
403,0,43.825,119.6401,65888.5,-2002,1958,1.1810.0000,-0.0004,2.3674,0,0,0,1,1
404,0,43.8424,119.6154,65889.7,-2002,1957,1.230.0000,-0.0004,2.3677,0,0,0,1,1
405,0,43.8598,119.5907,65890.9,-2003,1956,1.2790.0000,-0.0005,2.368,0,0,0,1,1
406,0,43.8772,119.566,65892.2,-2004,1956,1.3290.0000,-0.0005,2.3682,0,0,0,1,1
407,0,43.8946,119.5413,65893.6,-2004,1955,1.380.0000,-0.0005,2.3685,0,0,0,1,1
408,0,43.9119,119.5166,65895,-2005,1955,1.4310.0000,-0.0005,2.3688,0,0,0,1,1
409,0,43.9293,119.4918,65896.4,-2005,1954,1.4830.0000,-0.0005,2.3691,0,0,0,1,1
410,0,43.9467,119.4671,65898,-2006,1953,1.5360.0000,-0.0005,2.3694,0,0,0,1,1
411,0,43.9641,119.4423,65899.5,-2006,1953,1.590.0000,-0.0006,2.3697,0,0,0,1,1
412,0,43.9814,119.4175,65901.1,-2007,1952,1.6440.0000,-0.0006,2.37,0,0,0,1,1
413,0,43.9988,119.3927,65902.8,-2008,1952,1.6980.0000,-0.0006,2.3703,0,0,0,1,1
414,0,44.0161,119.3679,65904.6,-2008,1951,1.7540.0000,-0.0006,2.3706,0,0,0,1,1
415,0,44.0335,119.343,65906.3,-2009,1950,1.810.0000,-0.0006,2.3709,0,0,0,1,1
416,0,44.0508,119.3182,65908.2,-2009,1950,1.8680.0000,-0.0007,2.3712,0,0,0,1,1
417,0,44.0681,119.2933,65910.1,-2010,1949,1.9260.0000,-0.0007,2.3715,0,0,0,1,1
418,0,44.0855,119.2684,65912,-2011,1949,1.9840.0000,-0.0007,2.3718,0,0,0,1,1
419,0,44.1028,119.2435,65914.1,-2011,1948,2.0440.0000,-0.0007,2.3721,0,0,0,1,1
420,0,44.1201,119.2186,65916.1,-2012,1948,2.1050.0000,-0.0008,2.3724,0,0,0,1,1
421,0,44.1374,119.1937,65918.3,-2012,1947,2.1660.0000,-0.0008,2.3727,0,0,0,1,1
422,0,44.1547,119.1688,65920.5,-2013,1946,2.2280.0000,-0.0008,2.373,0,0,0,1,1
423,0,44.172,119.1438,65922.7,-2014,1946,2.290.0000,-0.0008,2.3733,0,0,0,1,1
424,0,44.1893,119.1188,65925.1,-2014,1945,2.3520.0000,-0.0008,2.3736,0,0,0,1,1
425,0,44.2066,119.0939,65927.5,-2015,1945,2.4120.0000,-0.0009,2.3739,0,0,0,1,1
426,0,44.2239,119.0689,65930,-2015,1944,2.4720.0000,-0.0009,2.3742,0,0,0,1,1
427,0,44.2412,119.0439,65932.5,-2016,1943,2.5320.0000,-0.0009,2.3745,0,0,0,1,1
428,0,44.2585,119.0188,65935.1,-2016,1943,2.590.0000,-0.0009,2.3748,0,0,0,1,1
429,0,44.2757,118.9938,65937.7,-2017,1942,2.6480.0000,-0.0009,2.3751,0,0,0,1,1
430,0,44.293,118.9687,65940.4,-2018,1941,2.7040.0000,-0.001,2.3754,0,0,0,1,1
431,0,44.3103,118.9437,65943.2,-2018,1941,2.760.0000,-0.001,2.3758,0,0,0,1,1
432,0,44.3275,118.9186,65946,-2019,1940,2.8140.0000,-0.001,2.3761,0,0,0,1,1
433,0,44.3448,118.8935,65948.8,-2019,1940,2.8660.0000,-0.001,2.3764,0,0,0,1,1
434,0,44.362,118.8684,65951.8,-2020,1939,2.9180.0000,-0.001,2.3767,0,0,0,1,1
435,0,44.3792,118.8432,65954.7,-2021,1938,2.9680.0000,-0.0011,2.377,0,0,0,1,1
436,0,44.3965,118.8181,65957.7,-2021,1938,3.0160.0000,-0.0011,2.3773,0,0,0,1,1
437,0,44.4137,118.7929,65960.8,-2022,1937,3.0620.0000,-0.0011,2.3776,0,0,0,1,1
438,0,44.4309,118.7678,65963.8,-2022,1936,3.1060.0000,-0.0011,2.3779,0,0,0,1,1
439,0,44.4481,118.7426,65967,-2023,1936,3.1490.0000,-0.0011,2.3782,0,0,0,1,1
440,0,44.4653,118.7174,65970.1,-2024,1935,3.1890.0000,-0.0011,2.3785,0,0,0,1,1
441,0,44.4826,118.6921,65973.3,-2024,1935,3.2280.0000,-0.0012,2.3788,0,0,0,1,1
442,0,44.4997,118.6669,65976.5,-2025,1934,3.2640.0000,-0.0012,2.3791,0,0,0,1,1
443,0,44.5169,118.6417,65979.8,-2025,1933,3.2980.0000,-0.0012,2.3794,0,0,0,1,1
444,0,44.5341,118.6164,65983.1,-2026,1933,3.3290.0000,-0.0012,2.3797,0,0,0,1,1
445,0,44.5513,118.5911,65986.4,-2027,1932,3.3580.0000,-0.0012,2.3801,0,0,0,1,1
446,0,44.5685,118.5658,65989.8,-2027,1931,3.3840.0000,-0.0012,2.3804,0,0,0,1,1
447,0,44.5857,118.5405,65993.1,-2028,1931,3.4070.0000,-0.0012,2.3807,0,0,0,1,1
448,0,44.6028,118.5152,65996.5,-2028,1930,3.4280.0000,-0.0012,2.381,0,0,0,1,1
449,0,44.62,118.4899,65999.9,-2029,1930,3.4450.0000,-0.0012,2.3813,0,0,0,1,1
450,0,44.6371,118.4645,66003.4,-2030,1929,3.460.0000,-0.0012,2.3816,0,0,0,1,1
451,0,44.6543,118.4392,66006.8,-2030,1928,3.4710.0000,-0.0012,2.3819,0,0,0,1,1
452,0,44.6714,118.4138,66010.3,-2031,1928,3.4790.0000,-0.0012,2.3822,0,0,0,1,1
453,0,44.6886,118.3884,66013.7,-2031,1927,3.4840.0000,-0.0012,2.3826,0,0,0,1,1
454,0,44.7057,118.363,66017.2,-2032,1926,3.4850.0000,-0.0012,2.3829,0,0,0,1,1
455,0,44.7228,118.3375,66020.7,-2033,1926,3.4860.0000,-0.0012,2.3832,0,0,0,1,1
456,0,44.7399,118.3121,66024.2,-2033,1925,3.4870.0000,-0.0012,2.3835,0,0,0,1,1
457,0,44.757,118.2866,66027.7,-2034,1925,3.4870.0000,-0.0012,2.3838,0,0,0,1,1
458,0,44.7742,118.2612,66031.2,-2034,1924,3.4880.0000,-0.0012,2.3841,0,0,0,1,1
459,0,44.7913,118.2357,66034.8,-2035,1923,3.4880.0000,-0.0012,2.3844,0,0,0,1,1
460,0,44.8084,118.2102,66038.3,-2036,1923,3.4870.0000,-0.0012,2.3847,0,0,0,1,1
461,0,44.8254,118.1846,66041.8,-2036,1922,3.4860.0000,-0.0012,2.3851,0,0,0,1,1
462,0,44.8425,118.1591,66045.3,-2037,1921,3.4830.0000,-0.0012,2.3854,0,0,0,1,1
463,0,44.8596,118.1336,66048.8,-2037,1921,3.480.0000,-0.0012,2.3857,0,0,0,1,1
464,0,44.8767,118.108,66052.4,-2038,1920,3.4760.0000,-0.0012,2.386,0,0,0,1,1
465,0,44.8938,118.0824,66055.9,-2039,1919,3.4710.0000,-0.0012,2.3863,0,0,0,1,1
466,0,44.9108,118.0568,66059.3,-2039,1919,3.4640.0000,-0.0012,2.3866,0,0,0,1,1
467,0,44.9279,118.0312,66062.8,-2040,1918,3.4560.0000,-0.0012,2.387,0,0,0,1,1
468,0,44.9449,118.0056,66066.3,-2040,1917,3.4460.0000,-0.0012,2.3873,0,0,0,1,1
469,0,44.962,117.98,66069.7,-2041,1917,3.4350.0000,-0.0012,2.3876,0,0,0,1,1
470,0,44.979,117.9543,66073.2,-2042,1916,3.4220.0000,-0.0012,2.3879,0,0,0,1,1
471,0,44.996,117.9286,66076.6,-2042,1915,3.4060.0000,-0.0012,2.3882,0,0,0,1,1
472,0,45.0131,117.9029,66080,-2043,1915,3.3890.0000,-0.0012,2.3886,0,0,0,1,1
473,0,45.0301,117.8772,66083.3,-2044,1914,3.370.0000,-0.0012,2.3889,0,0,0,1,1
474,0,45.0471,117.8515,66086.7,-2044,1913,3.3480.0000,-0.0012,2.3892,0,0,0,1,1
475,0,45.0641,117.8258,66090,-2045,1913,3.3240.0000,-0.0012,2.3895,0,0,0,1,1
476,0,45.0811,117.8001,66093.3,-2045,1912,3.2970.0000,-0.0012,2.3898,0,0,0,1,1
477,0,45.0981,117.7743,66096.5,-2046,1912,3.2670.0000,-0.0012,2.3902,0,0,0,1,1
478,0,45.1151,117.7485,66099.7,-2047,1911,3.2340.0000,-0.0012,2.3905,0,0,0,1,1
479,0,45.1321,117.7227,66102.9,-2047,1910,3.1990.0000,-0.0011,2.3908,0,0,0,1,1
480,0,45.1491,117.6969,66106.1,-2048,1910,3.160.0000,-0.0011,2.3911,0,0,0,1,1
481,0,45.166,117.6711,66109.2,-2048,1909,3.1190.0000,-0.0011,2.3914,0,0,0,1,1
482,0,45.183,117.6452,66112.2,-2049,1908,3.0730.0000,-0.0011,2.3918,0,0,0,1,1
483,0,45.2,117.6194,66115.3,-2050,1908,3.0250.0000,-0.0011,2.3921,0,0,0,1,1
484,0,45.2169,117.5935,66118.2,-2050,1907,2.9720.0000,-0.0011,2.3924,0,0,0,1,1
485,0,45.2339,117.5676,66121.2,-2051,1906,2.9160.0000,-0.001,2.3927,0,0,0,1,1
486,0,45.2508,117.5417,66124,-2052,1906,2.8560.0000,-0.001,2.3931,0,0,0,1,1
487,0,45.2678,117.5158,66126.9,-2052,1905,2.7950.0000,-0.001,2.3934,0,0,0,1,1
488,0,45.2847,117.4899,66129.7,-2053,1904,2.7370.0000,-0.001,2.3937,0,0,0,1,1
489,0,45.3016,117.4639,66132.4,-2053,1904,2.6830.0000,-0.001,2.394,0,0,0,1,1
490,0,45.3186,117.438,66135.1,-2054,1903,2.6310.0000,-0.0009,2.3943,0,0,0,1,1
491,0,45.3355,117.412,66137.7,-2055,1902,2.5820.0000,-0.0009,2.3947,0,0,0,1,1
492,0,45.3524,117.386,66140.3,-2055,1902,2.5360.0000,-0.0009,2.395,0,0,0,1,1
493,0,45.3693,117.36,66142.8,-2056,1901,2.4930.0000,-0.0009,2.3953,0,0,0,1,1
494,0,45.3862,117.334,66145.3,-2056,1900,2.4520.0000,-0.0009,2.3956,0,0,0,1,1
495,0,45.4031,117.3079,66147.8,-2057,1900,2.4140.0000,-0.0009,2.396,0,0,0,1,1
496,0,45.42,117.2819,66150.2,-2058,1899,2.3780.0000,-0.0008,2.3963,0,0,0,1,1
497,0,45.4368,117.2558,66152.6,-2058,1898,2.3440.0000,-0.0008,2.3966,0,0,0,1,1
498,0,45.4537,117.2297,66155,-2059,1898,2.3120.0000,-0.0008,2.397,0,0,0,1,1
499,0,45.4706,117.2036,66157.3,-2060,1897,2.2820.0000,-0.0008,2.3973,0,0,0,1,1
500,0,45.4874,117.1775,66159.6,-2060,1896,2.2530.0000,-0.0008,2.3976,0,0,0,1,1
501,0,45.5043,117.1513,66161.8,-2061,1896,2.2270.0000,-0.0008,2.3979,0,0,0,1,1
502,0,45.5212,117.1252,66164,-2061,1895,2.2020.0000,-0.0008,2.3983,0,0,0,1,1
503,0,45.538,117.099,66166.2,-2062,1894,2.1780.0000,-0.0008,2.3986,0,0,0,1,1
504,0,45.5548,117.0729,66168.4,-2063,1894,2.1560.0000,-0.0008,2.3989,0,0,0,1,1
505,0,45.5717,117.0467,66170.5,-2063,1893,2.1340.0000,-0.0008,2.3992,0,0,0,1,1
506,0,45.5885,117.0204,66172.6,-2064,1892,2.1140.0000,-0.0008,2.3996,0,0,0,1,1
507,0,45.6053,116.9942,66174.7,-2065,1891,2.0950.0000,-0.0007,2.3999,0,0,0,1,1
508,0,45.6221,116.968,66176.8,-2065,1891,2.0770.0000,-0.0007,2.4002,0,0,0,1,1
509,0,45.6389,116.9417,66178.8,-2066,1890,2.0590.0000,-0.0007,2.4006,0,0,0,1,1
510,0,45.6557,116.9154,66180.8,-2066,1889,2.0420.0000,-0.0007,2.4009,0,0,0,1,1
511,0,45.6725,116.8891,66182.8,-2067,1889,2.0250.0000,-0.0007,2.4012,0,0,0,1,1
512,0,45.6893,116.8628,66184.8,-2068,1888,2.0090.0000,-0.0007,2.4016,0,0,0,1,1
513,0,45.7061,116.8365,66186.8,-2068,1887,1.9930.0000,-0.0007,2.4019,0,0,0,1,1
514,0,45.7229,116.8102,66188.7,-2069,1887,1.9770.0000,-0.0007,2.4022,0,0,0,1,1
515,0,45.7397,116.7838,66190.7,-2069,1886,1.9610.0000,-0.0007,2.4026,0,0,0,1,1
516,0,45.7564,116.7574,66192.6,-2070,1885,1.9450.0000,-0.0007,2.4029,0,0,0,1,1
517,0,45.7732,116.731,66194.5,-2071,1885,1.9290.0000,-0.0007,2.4032,0,0,0,1,1
518,0,45.7899,116.7046,66196.4,-2071,1884,1.9120.0000,-0.0007,2.4035,0,0,0,1,1
519,0,45.8067,116.6782,66198.3,-2072,1883,1.8950.0000,-0.0007,2.4039,0,0,0,1,1
520,0,45.8234,116.6518,66200.2,-2073,1883,1.8760.0000,-0.0007,2.4042,0,0,0,1,1
521,0,45.8402,116.6253,66202.1,-2073,1882,1.8570.0000,-0.0007,2.4045,0,0,0,1,1
522,0,45.8569,116.5989,66203.9,-2074,1881,1.8370.0000,-0.0007,2.4049,0,0,0,1,1
523,0,45.8736,116.5724,66205.7,-2075,1881,1.8160.0000,-0.0006,2.4052,0,0,0,1,1
524,0,45.8903,116.5459,66207.5,-2075,1880,1.7950.0000,-0.0006,2.4055,0,0,0,1,1
525,0,45.907,116.5194,66209.3,-2076,1879,1.7730.0000,-0.0006,2.4059,0,0,0,1,1
526,0,45.9237,116.4928,66211,-2076,1878,1.7510.0000,-0.0006,2.4062,0,0,0,1,1
527,0,45.9404,116.4663,66212.7,-2077,1878,1.7280.0000,-0.0006,2.4065,0,0,0,1,1
528,0,45.9571,116.4397,66214.4,-2078,1877,1.7050.0000,-0.0006,2.4069,0,0,0,1,1
529,0,45.9738,116.4131,66216.1,-2078,1876,1.6810.0000,-0.0006,2.4072,0,0,0,1,1
530,0,45.9905,116.3866,66217.7,-2079,1876,1.6570.0000,-0.0006,2.4076,0,0,0,1,1
531,0,46.0072,116.3599,66219.4,-2080,1875,1.6340.0000,-0.0006,2.4079,0,0,0,1,1
532,0,46.0238,116.3333,66221,-2080,1874,1.610.0000,-0.0006,2.4082,0,0,0,1,1
533,0,46.0405,116.3067,66222.6,-2081,1874,1.5860.0000,-0.0006,2.4086,0,0,0,1,1
534,0,46.0571,116.28,66224.1,-2081,1873,1.5630.0000,-0.0006,2.4089,0,0,0,1,1
535,0,46.0738,116.2533,66225.7,-2082,1872,1.5390.0000,-0.0005,2.4092,0,0,0,1,1
536,0,46.0904,116.2266,66227.2,-2083,1871,1.5160.0000,-0.0005,2.4096,0,0,0,1,1
537,0,46.1071,116.1999,66228.7,-2083,1871,1.4940.0000,-0.0005,2.4099,0,0,0,1,1
538,0,46.1237,116.1732,66230.2,-2084,1870,1.4720.0000,-0.0005,2.4102,0,0,0,1,1
539,0,46.1403,116.1465,66231.7,-2085,1869,1.450.0000,-0.0005,2.4106,0,0,0,1,1
540,0,46.1569,116.1197,66233.2,-2085,1869,1.4290.0000,-0.0005,2.4109,0,0,0,1,1
541,0,46.1736,116.0929,66234.6,-2086,1868,1.4090.0000,-0.0005,2.4113,0,0,0,1,1
542,0,46.1902,116.0662,66236,-2086,1867,1.390.0000,-0.0005,2.4116,0,0,0,1,1
543,0,46.2068,116.0394,66237.4,-2087,1866,1.3710.0000,-0.0005,2.4119,0,0,0,1,1
544,0,46.2233,116.0125,66238.8,-2088,1866,1.3540.0000,-0.0005,2.4123,0,0,0,1,1
545,0,46.2399,115.9857,66240.2,-2088,1865,1.3370.0000,-0.0005,2.4126,0,0,0,1,1
546,0,46.2565,115.9588,66241.5,-2089,1864,1.3220.0000,-0.0005,2.4129,0,0,0,1,1
547,0,46.2731,115.932,66242.9,-2090,1864,1.3080.0000,-0.0005,2.4133,0,0,0,1,1
548,0,46.2897,115.9051,66244.2,-2090,1863,1.2950.0000,-0.0005,2.4136,0,0,0,1,1
549,0,46.3062,115.8782,66245.5,-2091,1862,1.2830.0000,-0.0005,2.414,0,0,0,1,1
550,0,46.3228,115.8513,66246.8,-2092,1862,1.2730.0000,-0.0005,2.4143,0,0,0,1,1
551,0,46.3393,115.8243,66248,-2092,1861,1.2650.0000,-0.0005,2.4146,0,0,0,1,1
552,0,46.3559,115.7974,66249.3,-2093,1860,1.2570.0000,-0.0004,2.415,0,0,0,1,1
553,0,46.3724,115.7704,66250.5,-2093,1859,1.2480.0000,-0.0004,2.4153,0,0,0,1,1
554,0,46.3889,115.7434,66251.8,-2094,1859,1.2390.0000,-0.0004,2.4157,0,0,0,1,1
555,0,46.4054,115.7164,66253,-2095,1858,1.230.0000,-0.0004,2.416,0,0,0,1,1
556,0,46.422,115.6894,66254.2,-2095,1857,1.2210.0000,-0.0004,2.4164,0,0,0,1,1
557,0,46.4385,115.6624,66255.4,-2096,1857,1.2120.0000,-0.0004,2.4167,0,0,0,1,1
558,0,46.455,115.6353,66256.6,-2097,1856,1.2020.0000,-0.0004,2.417,0,0,0,1,1
559,0,46.4715,115.6083,66257.8,-2097,1855,1.1930.0000,-0.0004,2.4174,0,0,0,1,1
560,0,46.488,115.5812,66258.9,-2098,1854,1.1840.0000,-0.0004,2.4177,0,0,0,1,1
561,0,46.5044,115.5541,66260.1,-2099,1854,1.1750.0000,-0.0004,2.4181,0,0,0,1,1
562,0,46.5209,115.527,66261.3,-2099,1853,1.1660.0000,-0.0004,2.4184,0,0,0,1,1
563,0,46.5374,115.4998,66262.4,-2100,1852,1.1580.0000,-0.0004,2.4188,0,0,0,1,1
564,0,46.5539,115.4727,66263.5,-2100,1852,1.150.0000,-0.0004,2.4191,0,0,0,1,1
565,0,46.5703,115.4455,66264.7,-2101,1851,1.1420.0000,-0.0004,2.4194,0,0,0,1,1
566,0,46.5868,115.4183,66265.8,-2102,1850,1.1350.0000,-0.0004,2.4198,0,0,0,1,1
567,0,46.6032,115.3911,66266.9,-2102,1849,1.1290.0000,-0.0004,2.4201,0,0,0,1,1
568,0,46.6196,115.3639,66268.1,-2103,1849,1.1230.0000,-0.0004,2.4205,0,0,0,1,1
569,0,46.6361,115.3367,66269.2,-2104,1848,1.1180.0000,-0.0004,2.4208,0,0,0,1,1
570,0,46.6525,115.3094,66270.3,-2104,1847,1.1140.0000,-0.0004,2.4212,0,0,0,1,1
571,0,46.6689,115.2822,66271.4,-2105,1846,1.110.0000,-0.0004,2.4215,0,0,0,1,1
572,0,46.6853,115.2549,66272.6,-2106,1846,1.1080.0000,-0.0004,2.4219,0,0,0,1,1
573,0,46.7017,115.2276,66273.7,-2106,1845,1.1060.0000,-0.0004,2.4222,0,0,0,1,1
574,0,46.7181,115.2003,66274.8,-2107,1844,1.1060.0000,-0.0004,2.4225,0,0,0,1,1
575,0,46.7345,115.173,66275.9,-2107,1844,1.1060.0000,-0.0004,2.4229,0,0,0,1,1
576,0,46.7509,115.1456,66277.1,-2108,1843,1.1080.0000,-0.0004,2.4232,0,0,0,1,1
577,0,46.7673,115.1183,66278.2,-2109,1842,1.1110.0000,-0.0004,2.4236,0,0,0,1,1
578,0,46.7837,115.0909,66279.3,-2109,1841,1.1150.0000,-0.0004,2.4239,0,0,0,1,1
579,0,46.8001,115.0635,66280.4,-2110,1841,1.1210.0000,-0.0004,2.4243,0,0,0,1,1
580,0,46.8164,115.0361,66281.6,-2111,1840,1.1290.0000,-0.0004,2.4246,0,0,0,1,1
581,0,46.8328,115.0086,66282.7,-2111,1839,1.1370.0000,-0.0004,2.425,0,0,0,1,1
582,0,46.8491,114.9812,66283.9,-2112,1838,1.1480.0000,-0.0004,2.4253,0,0,0,1,1
583,0,46.8655,114.9537,66285,-2113,1838,1.160.0000,-0.0004,2.4257,0,0,0,1,1
584,0,46.8818,114.9262,66286.2,-2113,1837,1.1730.0000,-0.0004,2.426,0,0,0,1,1
585,0,46.8981,114.8988,66287.4,-2114,1836,1.1860.0000,-0.0004,2.4264,0,0,0,1,1
586,0,46.9144,114.8712,66288.6,-2115,1835,1.1990.0000,-0.0004,2.4267,0,0,0,1,1
587,0,46.9308,114.8437,66289.8,-2115,1835,1.2120.0000,-0.0004,2.4271,0,0,0,1,1
588,0,46.9471,114.8162,66291,-2116,1834,1.2240.0000,-0.0004,2.4274,0,0,0,1,1
589,0,46.9634,114.7886,66292.2,-2116,1833,1.2370.0000,-0.0004,2.4278,0,0,0,1,1
590,0,46.9797,114.761,66293.4,-2117,1832,1.2490.0000,-0.0004,2.4281,0,0,0,1,1
591,0,46.996,114.7334,66294.7,-2118,1832,1.2610.0000,-0.0005,2.4285,0,0,0,1,1
592,0,47.0122,114.7058,66295.9,-2118,1831,1.2740.0000,-0.0005,2.4288,0,0,0,1,1
593,0,47.0285,114.6782,66297.2,-2119,1830,1.2860.0000,-0.0005,2.4292,0,0,0,1,1
594,0,47.0448,114.6505,66298.5,-2120,1830,1.2990.0000,-0.0005,2.4295,0,0,0,1,1
595,0,47.061,114.6229,66299.8,-2120,1829,1.3120.0000,-0.0005,2.4299,0,0,0,1,1
596,0,47.0773,114.5952,66301.1,-2121,1828,1.3250.0000,-0.0005,2.4303,0,0,0,1,1
597,0,47.0935,114.5675,66302.4,-2122,1827,1.3390.0000,-0.0005,2.4306,0,0,0,1,1
598,0,47.1098,114.5398,66303.7,-2122,1826,1.3530.0000,-0.0005,2.431,0,0,0,1,1
599,0,47.126,114.512,66305.1,-2123,1826,1.3670.0000,-0.0005,2.4313,0,0,0,1,1
600,0,47.1422,114.4843,66306.5,-2124,1825,1.3810.0000,-0.0005,2.4317,0,0,0,1,1
601,0,47.1585,114.4565,66307.9,-2124,1824,1.3970.0000,-0.0005,2.432,0,0,0,1,1
602,0,47.1747,114.4287,66309.3,-2125,1823,1.4120.0000,-0.0005,2.4324,0,0,0,1,1
603,0,47.1909,114.4009,66310.7,-2125,1823,1.4290.0000,-0.0005,2.4327,0,0,0,1,1
604,0,47.2071,114.3731,66312.1,-2126,1822,1.4460.0000,-0.0005,2.4331,0,0,0,1,1
605,0,47.2233,114.3453,66313.6,-2127,1821,1.4640.0000,-0.0005,2.4334,0,0,0,1,1
606,0,47.2395,114.3174,66315.1,-2127,1820,1.4820.0000,-0.0005,2.4338,0,0,0,1,1
607,0,47.2557,114.2896,66316.6,-2128,1820,1.5010.0000,-0.0005,2.4342,0,0,0,1,1
608,0,47.2718,114.2617,66318.1,-2129,1819,1.5210.0000,-0.0005,2.4345,0,0,0,1,1
609,0,47.288,114.2338,66319.7,-2129,1818,1.5430.0000,-0.0006,2.4349,0,0,0,1,1
610,0,47.3042,114.2059,66321.2,-2130,1817,1.5650.0000,-0.0006,2.4352,0,0,0,1,1
611,0,47.3203,114.1779,66322.8,-2131,1817,1.5880.0000,-0.0006,2.4356,0,0,0,1,1
612,0,47.3365,114.15,66324.4,-2131,1816,1.6120.0000,-0.0006,2.4359,0,0,0,1,1
613,0,47.3526,114.122,66326.1,-2132,1815,1.6370.0000,-0.0006,2.4363,0,0,0,1,1
614,0,47.3687,114.094,66327.7,-2133,1814,1.6630.0000,-0.0006,2.4367,0,0,0,1,1
615,0,47.3849,114.066,66329.4,-2133,1814,1.6910.0000,-0.0006,2.437,0,0,0,1,1
616,0,47.401,114.038,66331.1,-2134,1813,1.7190.0000,-0.0006,2.4374,0,0,0,1,1
617,0,47.4171,114.01,66332.8,-2135,1812,1.7480.0000,-0.0006,2.4377,0,0,0,1,1
618,0,47.4332,113.9819,66334.6,-2135,1811,1.7760.0000,-0.0006,2.4381,0,0,0,1,1
619,0,47.4493,113.9538,66336.4,-2136,1811,1.8030.0000,-0.0006,2.4385,0,0,0,1,1
620,0,47.4654,113.9257,66338.2,-2137,1810,1.8290.0000,-0.0007,2.4388,0,0,0,1,1
621,0,47.4815,113.8976,66340,-2137,1809,1.8540.0000,-0.0007,2.4392,0,0,0,1,1
622,0,47.4976,113.8695,66341.9,-2138,1808,1.880.0000,-0.0007,2.4396,0,0,0,1,1
623,0,47.5136,113.8414,66343.8,-2139,1807,1.9040.0000,-0.0007,2.4399,0,0,0,1,1
624,0,47.5297,113.8132,66345.7,-2139,1807,1.9280.0000,-0.0007,2.4403,0,0,0,1,1
625,0,47.5458,113.785,66347.6,-2140,1806,1.9520.0000,-0.0007,2.4406,0,0,0,1,1
626,0,47.5618,113.7568,66349.5,-2141,1805,1.9750.0000,-0.0007,2.441,0,0,0,1,1
627,0,47.5779,113.7286,66351.5,-2141,1804,1.9970.0000,-0.0007,2.4414,0,0,0,1,1
628,0,47.5939,113.7004,66353.5,-2142,1804,2.020.0000,-0.0007,2.4417,0,0,0,1,1
629,0,47.6099,113.6722,66355.5,-2142,1803,2.0420.0000,-0.0007,2.4421,0,0,0,1,1
630,0,47.626,113.6439,66357.6,-2143,1802,2.0640.0000,-0.0007,2.4425,0,0,0,1,1
631,0,47.642,113.6156,66359.7,-2144,1801,2.0850.0000,-0.0007,2.4428,0,0,0,1,1
632,0,47.658,113.5873,66361.8,-2144,1800,2.1070.0000,-0.0008,2.4432,0,0,0,1,1
633,0,47.674,113.559,66363.9,-2145,1800,2.1280.0000,-0.0008,2.4436,0,0,0,1,1
634,0,47.69,113.5307,66366,-2146,1799,2.150.0000,-0.0008,2.4439,0,0,0,1,1
635,0,47.706,113.5023,66368.2,-2146,1798,2.1710.0000,-0.0008,2.4443,0,0,0,1,1
636,0,47.722,113.474,66370.4,-2147,1797,2.1920.0000,-0.0008,2.4447,0,0,0,1,1
637,0,47.7379,113.4456,66372.6,-2148,1796,2.2140.0000,-0.0008,2.445,0,0,0,1,1
638,0,47.7539,113.4172,66374.8,-2148,1796,2.2350.0000,-0.0008,2.4454,0,0,0,1,1
639,0,47.7699,113.3888,66377.1,-2149,1795,2.2570.0000,-0.0008,2.4458,0,0,0,1,1
640,0,47.7858,113.3603,66379.4,-2150,1794,2.2790.0000,-0.0008,2.4461,0,0,0,1,1
641,0,47.8018,113.3319,66381.7,-2150,1793,2.3010.0000,-0.0008,2.4465,0,0,0,1,1
642,0,47.8177,113.3034,66384,-2151,1792,2.3230.0000,-0.0008,2.4469,0,0,0,1,1
643,0,47.8336,113.2749,66386.3,-2152,1792,2.3460.0000,-0.0008,2.4472,0,0,0,1,1
644,0,47.8496,113.2464,66388.7,-2152,1791,2.3690.0000,-0.0008,2.4476,0,0,0,1,1
645,0,47.8655,113.2179,66391.1,-2153,1790,2.3920.0000,-0.0009,2.448,0,0,0,1,1
646,0,47.8814,113.1893,66393.5,-2154,1789,2.4160.0000,-0.0009,2.4484,0,0,0,1,1
647,0,47.8973,113.1608,66395.9,-2154,1788,2.440.0000,-0.0009,2.4487,0,0,0,1,1
648,0,47.9132,113.1322,66398.4,-2155,1788,2.4650.0000,-0.0009,2.4491,0,0,0,1,1
649,0,47.9291,113.1036,66400.9,-2156,1787,2.490.0000,-0.0009,2.4495,0,0,0,1,1
650,0,47.945,113.075,66403.4,-2156,1786,2.5130.0000,-0.0009,2.4498,0,0,0,1,1
651,0,47.9608,113.0464,66405.9,-2157,1785,2.5350.0000,-0.0009,2.4502,0,0,0,1,1
652,0,47.9767,113.0177,66408.4,-2158,1784,2.5550.0000,-0.0009,2.4506,0,0,0,1,1
653,0,47.9926,112.989,66411,-2158,1784,2.5750.0000,-0.0009,2.451,0,0,0,1,1
654,0,48.0084,112.9604,66413.5,-2159,1783,2.5920.0000,-0.0009,2.4513,0,0,0,1,1
655,0,48.0243,112.9317,66416.1,-2160,1782,2.6090.0000,-0.0009,2.4517,0,0,0,1,1
656,0,48.0401,112.9029,66418.7,-2160,1781,2.6250.0000,-0.0009,2.4521,0,0,0,1,1
657,0,48.0559,112.8742,66421.3,-2161,1780,2.6390.0000,-0.0009,2.4525,0,0,0,1,1
658,0,48.0718,112.8455,66424,-2162,1780,2.6520.0000,-0.0009,2.4528,0,0,0,1,1
659,0,48.0876,112.8167,66426.6,-2162,1779,2.6650.0000,-0.001,2.4532,0,0,0,1,1
660,0,48.1034,112.7879,66429.3,-2163,1778,2.6760.0000,-0.001,2.4536,0,0,0,1,1
661,0,48.1192,112.7591,66431.9,-2164,1777,2.6870.0000,-0.001,2.454,0,0,0,1,1
662,0,48.135,112.7303,66434.6,-2164,1776,2.6970.0000,-0.001,2.4543,0,0,0,1,1
663,0,48.1508,112.7014,66437.3,-2165,1776,2.7060.0000,-0.001,2.4547,0,0,0,1,1
664,0,48.1666,112.6726,66440,-2166,1775,2.7140.0000,-0.001,2.4551,0,0,0,1,1
665,0,48.1823,112.6437,66442.8,-2166,1774,2.7220.0000,-0.001,2.4555,0,0,0,1,1
666,0,48.1981,112.6148,66445.5,-2167,1773,2.7290.0000,-0.001,2.4558,0,0,0,1,1
667,0,48.2139,112.5859,66448.2,-2168,1772,2.7350.0000,-0.001,2.4562,0,0,0,1,1
668,0,48.2296,112.557,66451,-2168,1771,2.7410.0000,-0.001,2.4566,0,0,0,1,1
669,0,48.2454,112.528,66453.7,-2169,1771,2.7460.0000,-0.001,2.457,0,0,0,1,1
670,0,48.2611,112.499,66456.5,-2170,1770,2.7520.0000,-0.001,2.4574,0,0,0,1,1
671,0,48.2768,112.4701,66459.2,-2170,1769,2.7560.0000,-0.001,2.4577,0,0,0,1,1
672,0,48.2926,112.4411,66462,-2171,1768,2.7610.0000,-0.001,2.4581,0,0,0,1,1
673,0,48.3083,112.412,66464.8,-2172,1767,2.7650.0000,-0.001,2.4585,0,0,0,1,1
674,0,48.324,112.383,66467.6,-2172,1766,2.7690.0000,-0.001,2.4589,0,0,0,1,1
675,0,48.3397,112.3539,66470.4,-2173,1766,2.7730.0000,-0.001,2.4593,0,0,0,1,1
676,0,48.3554,112.3249,66473.2,-2174,1765,2.7770.0000,-0.001,2.4597,0,0,0,1,1
677,0,48.3711,112.2958,66475.9,-2174,1764,2.7810.0000,-0.001,2.46,0,0,0,1,1
678,0,48.3867,112.2667,66478.7,-2175,1763,2.7850.0000,-0.001,2.4604,0,0,0,1,1
679,0,48.4024,112.2375,66481.5,-2176,1762,2.7890.0000,-0.001,2.4608,0,0,0,1,1
680,0,48.4181,112.2084,66484.3,-2176,1762,2.7930.0000,-0.001,2.4612,0,0,0,1,1
681,0,48.4337,112.1792,66487.1,-2177,1761,2.7980.0000,-0.001,2.4616,0,0,0,1,1
682,0,48.4494,112.15,66489.9,-2178,1760,2.80.0000,-0.001,2.4619,0,0,0,1,1
683,0,48.465,112.1208,66492.7,-2179,1759,2.8010.0000,-0.001,2.4623,0,0,0,1,1
684,0,48.4807,112.0916,66495.5,-2179,1758,2.8010.0000,-0.001,2.4627,0,0,0,1,1
685,0,48.4963,112.0624,66498.3,-2180,1757,2.7980.0000,-0.001,2.4631,0,0,0,1,1
686,0,48.5119,112.0331,66501.1,-2181,1757,2.7950.0000,-0.001,2.4635,0,0,0,1,1
687,0,48.5275,112.0039,66503.8,-2181,1756,2.7890.0000,-0.001,2.4639,0,0,0,1,1
688,0,48.5431,111.9746,66506.6,-2182,1755,2.7830.0000,-0.001,2.4643,0,0,0,1,1
689,0,48.5587,111.9453,66509.4,-2183,1754,2.7750.0000,-0.001,2.4646,0,0,0,1,1
690,0,48.5743,111.9159,66512.1,-2183,1753,2.7660.0000,-0.001,2.465,0,0,0,1,1
691,0,48.5899,111.8866,66514.9,-2184,1752,2.7560.0000,-0.001,2.4654,0,0,0,1,1
692,0,48.6055,111.8572,66517.6,-2185,1751,2.7450.0000,-0.001,2.4658,0,0,0,1,1
693,0,48.621,111.8278,66520.3,-2185,1751,2.7320.0000,-0.001,2.4662,0,0,0,1,1
694,0,48.6366,111.7984,66523,-2186,1750,2.7190.0000,-0.001,2.4666,0,0,0,1,1
695,0,48.6521,111.769,66525.7,-2187,1749,2.7050.0000,-0.001,2.467,0,0,0,1,1
696,0,48.6677,111.7396,66528.4,-2187,1748,2.6910.0000,-0.001,2.4674,0,0,0,1,1
697,0,48.6832,111.7101,66531.1,-2188,1747,2.6750.0000,-0.001,2.4678,0,0,0,1,1
698,0,48.6988,111.6807,66533.8,-2189,1746,2.6590.0000,-0.0009,2.4681,0,0,0,1,1
699,0,48.7143,111.6512,66536.4,-2189,1745,2.6420.0000,-0.0009,2.4685,0,0,0,1,1
700,0,48.7298,111.6217,66539.1,-2190,1745,2.6250.0000,-0.0009,2.4689,0,0,0,1,1
701,0,48.7453,111.5921,66541.7,-2191,1744,2.6080.0000,-0.0009,2.4693,0,0,0,1,1
702,0,48.7608,111.5626,66544.3,-2191,1743,2.590.0000,-0.0009,2.4697,0,0,0,1,1
703,0,48.7763,111.533,66546.9,-2192,1742,2.5720.0000,-0.0009,2.4701,0,0,0,1,1
704,0,48.7918,111.5034,66549.5,-2193,1741,2.5540.0000,-0.0009,2.4705,0,0,0,1,1
705,0,48.8073,111.4738,66552.1,-2193,1740,2.5350.0000,-0.0009,2.4709,0,0,0,1,1
706,0,48.8227,111.4442,66554.6,-2194,1739,2.5170.0000,-0.0009,2.4713,0,0,0,1,1
707,0,48.8382,111.4146,66557.1,-2195,1739,2.4990.0000,-0.0009,2.4717,0,0,0,1,1
708,0,48.8536,111.3849,66559.6,-2195,1738,2.480.0000,-0.0009,2.4721,0,0,0,1,1
709,0,48.8691,111.3553,66562.1,-2196,1737,2.4620.0000,-0.0009,2.4724,0,0,0,1,1
710,0,48.8845,111.3256,66564.6,-2197,1736,2.4450.0000,-0.0009,2.4728,0,0,0,1,1
711,0,48.8999,111.2959,66567.1,-2198,1735,2.4270.0000,-0.0009,2.4732,0,0,0,1,1
712,0,48.9154,111.2661,66569.5,-2198,1734,2.410.0000,-0.0009,2.4736,0,0,0,1,1
713,0,48.9308,111.2364,66571.9,-2199,1733,2.3940.0000,-0.0009,2.474,0,0,0,1,1
714,0,48.9462,111.2066,66574.3,-2200,1733,2.3760.0000,-0.0008,2.4744,0,0,0,1,1
715,0,48.9616,111.1768,66576.6,-2200,1732,2.3580.0000,-0.0008,2.4748,0,0,0,1,1
716,0,48.977,111.147,66579,-2201,1731,2.3380.0000,-0.0008,2.4752,0,0,0,1,1
717,0,48.9924,111.1172,66581.3,-2202,1730,2.3170.0000,-0.0008,2.4756,0,0,0,1,1
718,0,49.0077,111.0874,66583.6,-2202,1729,2.2950.0000,-0.0008,2.476,0,0,0,1,1
719,0,49.0231,111.0575,66585.8,-2203,1728,2.2720.0000,-0.0008,2.4764,0,0,0,1,1
720,0,49.0385,111.0276,66588,-2204,1727,2.2470.0000,-0.0008,2.4768,0,0,0,1,1
721,0,49.0538,110.9977,66590.3,-2204,1726,2.2220.0000,-0.0008,2.4772,0,0,0,1,1
722,0,49.0692,110.9678,66592.4,-2205,1726,2.1970.0000,-0.0008,2.4776,0,0,0,1,1
723,0,49.0845,110.9379,66594.6,-2206,1725,2.170.0000,-0.0008,2.478,0,0,0,1,1
724,0,49.0998,110.9079,66596.7,-2206,1724,2.1430.0000,-0.0008,2.4784,0,0,0,1,1
725,0,49.1152,110.878,66598.9,-2207,1723,2.1150.0000,-0.0008,2.4788,0,0,0,1,1
726,0,49.1305,110.848,66601,-2208,1722,2.0870.0000,-0.0007,2.4792,0,0,0,1,1
727,0,49.1458,110.818,66603,-2209,1721,2.0590.0000,-0.0007,2.4796,0,0,0,1,1
728,0,49.1611,110.788,66605.1,-2209,1720,2.030.0000,-0.0007,2.48,0,0,0,1,1
729,0,49.1764,110.7579,66607.1,-2210,1719,2.0010.0000,-0.0007,2.4804,0,0,0,1,1
730,0,49.1916,110.7278,66609.1,-2211,1719,1.9720.0000,-0.0007,2.4808,0,0,0,1,1
731,0,49.2069,110.6978,66611,-2211,1718,1.9430.0000,-0.0007,2.4812,0,0,0,1,1
732,0,49.2222,110.6677,66613,-2212,1717,1.9140.0000,-0.0007,2.4816,0,0,0,1,1
733,0,49.2374,110.6375,66614.9,-2213,1716,1.8850.0000,-0.0007,2.482,0,0,0,1,1
734,0,49.2527,110.6074,66616.8,-2213,1715,1.8570.0000,-0.0007,2.4824,0,0,0,1,1
735,0,49.2679,110.5773,66618.6,-2214,1714,1.8290.0000,-0.0007,2.4828,0,0,0,1,1
736,0,49.2832,110.5471,66620.4,-2215,1713,1.8010.0000,-0.0006,2.4832,0,0,0,1,1
737,0,49.2984,110.5169,66622.3,-2215,1712,1.7740.0000,-0.0006,2.4836,0,0,0,1,1
738,0,49.3136,110.4867,66624,-2216,1711,1.7470.0000,-0.0006,2.484,0,0,0,1,1
739,0,49.3288,110.4564,66625.8,-2217,1710,1.7210.0000,-0.0006,2.4844,0,0,0,1,1
740,0,49.344,110.4262,66627.5,-2217,1710,1.6960.0000,-0.0006,2.4848,0,0,0,1,1
741,0,49.3592,110.3959,66629.2,-2218,1709,1.6710.0000,-0.0006,2.4852,0,0,0,1,1
742,0,49.3744,110.3656,66630.9,-2219,1708,1.6480.0000,-0.0006,2.4856,0,0,0,1,1
743,0,49.3896,110.3353,66632.6,-2220,1707,1.6250.0000,-0.0006,2.486,0,0,0,1,1
744,0,49.4048,110.305,66634.2,-2220,1706,1.6040.0000,-0.0006,2.4864,0,0,0,1,1
745,0,49.4199,110.2747,66635.8,-2221,1705,1.5830.0000,-0.0006,2.4868,0,0,0,1,1
746,0,49.4351,110.2443,66637.4,-2222,1704,1.5640.0000,-0.0006,2.4872,0,0,0,1,1
747,0,49.4502,110.2139,66638.9,-2222,1703,1.5440.0000,-0.0006,2.4876,0,0,0,1,1
748,0,49.4654,110.1835,66640.4,-2223,1702,1.5230.0000,-0.0005,2.488,0,0,0,1,1
749,0,49.4805,110.1531,66641.9,-2224,1702,1.5020.0000,-0.0005,2.4884,0,0,0,1,1
750,0,49.4956,110.1227,66643.4,-2224,1701,1.4810.0000,-0.0005,2.4889,0,0,0,1,1
751,0,49.5107,110.0922,66644.8,-2225,1700,1.4590.0000,-0.0005,2.4893,0,0,0,1,1
752,0,49.5258,110.0617,66646.3,-2226,1699,1.4370.0000,-0.0005,2.4897,0,0,0,1,1
753,0,49.5409,110.0312,66647.7,-2226,1698,1.4140.0000,-0.0005,2.4901,0,0,0,1,1
754,0,49.556,110.0007,66649.1,-2227,1697,1.3920.0000,-0.0005,2.4905,0,0,0,1,1
755,0,49.5711,109.9702,66650.4,-2228,1696,1.3690.0000,-0.0005,2.4909,0,0,0,1,1
756,0,49.5862,109.9396,66651.8,-2229,1695,1.3470.0000,-0.0005,2.4913,0,0,0,1,1
757,0,49.6013,109.9091,66653.1,-2229,1694,1.3240.0000,-0.0005,2.4917,0,0,0,1,1
758,0,49.6163,109.8785,66654.4,-2230,1693,1.3020.0000,-0.0005,2.4921,0,0,0,1,1
759,0,49.6314,109.8479,66655.7,-2231,1692,1.280.0000,-0.0005,2.4925,0,0,0,1,1
760,0,49.6464,109.8173,66656.9,-2231,1692,1.2590.0000,-0.0004,2.4929,0,0,0,1,1
761,0,49.6614,109.7866,66658.2,-2232,1691,1.2380.0000,-0.0004,2.4933,0,0,0,1,1
762,0,49.6765,109.7559,66659.4,-2233,1690,1.2170.0000,-0.0004,2.4938,0,0,0,1,1
763,0,49.6915,109.7253,66660.6,-2233,1689,1.1970.0000,-0.0004,2.4942,0,0,0,1,1
764,0,49.7065,109.6946,66661.8,-2234,1688,1.1780.0000,-0.0004,2.4946,0,0,0,1,1
765,0,49.7215,109.6638,66663,-2235,1687,1.160.0000,-0.0004,2.495,0,0,0,1,1
