Time,ID,latitude,longitude,altitude,xVelocity,yVelocity,zVelocity,roll,pitch,yaw,roll_rate,pitch_rate,yaw_rate,attitude_z_up
0,0,55.7766,37.705,0.000201389,9.56E-12,1.25E-10,400,-1.5708,1.4947,0,0,0,1,1
1,0,55.7769,37.7042,63.9801,-0.9452,7.674,58.80.0000,-1.4401,1.6934,0,0,0,1,1
2,0,55.7773,37.7034,121.32,-6.916,20.01,75.570.0000,-1.2976,1.9035,0,0,0,1,1
3,0,55.7776,37.7027,178.689,-20.37,33.76,89.340.0000,-1.1552,2.1137,0,0,0,1,1
4,0,55.778,37.7018,242.758,-41.03,44.81,99.950.0000,-1.0246,2.3122,0,0,0,1,1
5,0,55.7783,37.7007,320.196,-65.86,50.49,108.40.0000,-0.9176,2.4876,0,0,0,1,1
6,0,55.7787,37.699,417.673,-90.43,50.98,117.20.0000,-0.846,2.6283,0,0,0,1,1
7,0,55.7791,37.6969,531.73,-112.5,49.34,127.40.0000,-0.8035,2.7284,0,0,0,1,1
8,0,55.7796,37.6944,656.627,-133,47.86,138.40.0000,-0.775,2.7961,0,0,0,1,1
9,0,55.7801,37.6916,794.879,-151.8,47.08,150.40.0000,-0.7578,2.8409,0,0,0,1,1
10,0,55.7806,37.6886,949.002,-169.5,46.77,163.50.0000,-0.7491,2.8724,0,0,0,1,1
11,0,55.781,37.6854,1121.51,-186.6,45.93,177.50.0000,-0.7459,2.9002,0,0,0,1,1
12,0,55.7814,37.6819,1314.92,-203.5,42.93,1920,-0.7454,2.9337,0,0,0,1,1
13,0,55.7816,37.6781,1523.72,-219.7,37.89,207.90.0000,-0.7506,2.9708,0,0,0,1,1
14,0,55.7819,37.6737,1745.37,-233.5,32.4,226.30.0000,-0.765,3.0037,0,0,0,1,1
15,0,55.7821,37.6692,1985.54,-244.5,26.73,247.40.0000,-0.7882,3.0327,0,0,0,1,1
16,0,55.7823,37.6647,2249.86,-252.4,21.18,271.20.0000,-0.8195,3.0579,0,0,0,1,1
17,0,55.7824,37.6606,2544.01,-256.5,15.97,297.60.0000,-0.8584,3.0794,0,0,0,1,1
18,0,55.7825,37.6572,2873.63,-256.5,11.33,326.40.0000,-0.9043,3.0974,0,0,0,1,1
19,0,55.7826,37.6544,3239.66,-248.3,7.568,359.70.0000,-0.9664,3.1111,0,0,0,1,1
20,0,55.7827,37.6522,3637.93,-229.9,4.897,397.10.0000,-1.046,3.1203,0,0,0,1,1
21,0,55.7827,37.6503,4065.69,-203.9,3.211,435.10.0000,-1.1326,3.1258,0,0,0,1,1
22,0,55.7827,37.6487,4520.22,-174.5,2.251,471.10.0000,-1.2161,3.1287,0,0,0,1,1
23,0,55.7827,37.6471,4998.8,-147.3,1.746,503.40.0000,-1.2862,3.1297,0,0,0,1,1
24,0,55.7827,37.6454,5498.7,-129.1,1.512,531.70.0000,-1.3326,3.1299,0,0,0,1,1
25,0,55.7827,37.6438,6023.14,-119.4,1.4,557.40.0000,-1.3598,3.1299,0,0,0,1,1
26,0,55.7827,37.6424,6574.26,-113.7,1.343,582.10.0000,-1.3779,3.1298,0,0,0,1,1
27,0,55.7827,37.6412,7149.4,-111.6,1.343,606.30.0000,-1.3888,3.1296,0,0,0,1,1
28,0,55.7827,37.6398,7745.91,-112.4,1.402,630.40.0000,-1.3943,3.1291,0,0,0,1,1
29,0,55.7827,37.6381,8361.1,-115.4,1.521,654.50.0000,-1.3963,3.1284,0,0,0,1,1
30,0,55.7828,37.6359,8992.36,-119.5,1.703,6790,-1.3965,3.1274,0,0,0,1,1
31,0,55.7828,37.6336,9645.01,-126,2.073,703.60.0000,-1.3936,3.1251,0,0,0,1,1
32,0,55.7829,37.6312,10321,-136.3,2.709,727.90.0000,-1.3856,3.1217,0,0,0,1,1
33,0,55.7829,37.6285,11015.6,-150.8,3.585,751.80.0000,-1.3728,3.1178,0,0,0,1,1
34,0,55.783,37.6253,11723.8,-169.6,4.65,775.20.0000,-1.3553,3.1142,0,0,0,1,1
35,0,55.7831,37.6212,12440.8,-193,5.802,798.10.0000,-1.3335,3.1115,0,0,0,1,1
36,0,55.7831,37.616,13161.8,-221.1,6.848,820.30.0000,-1.3074,3.1106,0,0,0,1,1
37,0,55.783,37.6103,13901.9,-253.8,7.07,841.20.0000,-1.2777,3.1137,0,0,0,1,1
38,0,55.783,37.6043,14664.1,-291.3,6.071,860.30.0000,-1.2443,3.1208,0,0,0,1,1
39,0,55.7829,37.5974,15434.4,-334.6,4.004,8770,-1.2063,3.1296,0,0,0,1,1
40,0,55.7828,37.5891,16198.4,-384.6,1.258,890.50.0000,-1.1631,3.1383,0,0,0,1,1
41,0,55.7827,37.5789,16941.9,-442.3,-1.419,899.40.0000,-1.1138,-3.1384,0,0,0,1,1
42,0,55.7827,37.5663,17650.9,-508.5,-2.748,902.40.0000,-1.0577,-3.1362,0,0,0,1,1
43,0,55.7831,37.5486,18323.3,-588.3,1.06,894.20.0000,-0.9889,3.1398,0,0,0,1,1
44,0,55.7841,37.5261,18969.2,-680,12.51,872.10.0000,-0.9085,3.1232,0,0,0,1,1
45,0,55.7854,37.5021,19596.7,-776.7,31.53,837.50.0000,-0.8227,3.101,0,0,0,1,1
46,0,55.787,37.4798,20213.9,-871.5,56.32,793.90.0000,-0.7378,3.0771,0,0,0,1,1
47,0,55.7886,37.4622,20828.8,-959.1,83.16,747.50.0000,-0.6603,3.0551,0,0,0,1,1
48,0,55.79,37.4525,21449.3,-1036,106.7,706.70.0000,-0.5963,3.0389,0,0,0,1,1
49,0,55.7914,37.4477,22075.3,-1106,127.9,672.90.0000,-0.5438,3.0264,0,0,0,1,1
50,0,55.7929,37.441,22701.1,-1172,149.2,6430,-0.4984,3.015,0,0,0,1,1
51,0,55.7944,37.4269,23323.4,-1235,169.3,616.80.0000,-0.4596,3.0053,0,0,0,1,1
52,0,55.7959,37.4001,23938.8,-1293,187.1,594.10.0000,-0.4268,2.9979,0,0,0,1,1
53,0,55.7976,37.3553,24544,-1346,201.2,574.80.0000,-0.3997,2.9932,0,0,0,1,1
54,0,55.7993,37.2857,25135.6,-1392,210.1,558.60.0000,-0.3777,2.9918,0,0,0,1,1
55,0,55.8012,37.069,25714,-1432,216,546.60.0000,-0.3609,2.9919,0,0,0,1,1
56,0,55.8031,36.6607,26282.2,-1467,220.9,539.50.0000,-0.3489,2.9921,0,0,0,1,1
57,0,55.805,36.1035,26842,-1497,225,536.60.0000,-0.3406,2.9925,0,0,0,1,1
58,0,55.807,35.4405,27395.6,-1525,228.4,5370,-0.3351,2.9929,0,0,0,1,1
59,0,55.8091,34.7146,27944.7,-1551,231.6,539.90.0000,-0.3315,2.9934,0,0,0,1,1
60,0,55.8112,33.9686,28491.3,-1577,234.5,543.90.0000,-0.3288,2.9939,0,0,0,1,1
61,0,55.8133,33.2454,29037.5,-1603,237.6,5480,-0.326,2.9945,0,0,0,1,1
62,0,55.8155,32.5881,29585.1,-1632,241,550.70.0000,-0.3222,2.995,0,0,0,1,1
63,0,55.8177,32.0269,30135.6,-1663,244.8,550.90.0000,-0.3166,2.9955,0,0,0,1,1
64,0,55.8199,31.4967,30685.9,-1696,248.7,550.30.0000,-0.3106,2.996,0,0,0,1,1
65,0,55.8221,30.9783,31235.1,-1729,252.6,549.30.0000,-0.3046,2.9965,0,0,0,1,1
66,0,55.8244,30.4693,31783.2,-1763,256.5,548.10.0000,-0.2985,2.9971,0,0,0,1,1
67,0,55.8267,29.9672,32330.1,-1797,260.4,546.70.0000,-0.2925,2.9977,0,0,0,1,1
68,0,55.829,29.4696,32875.7,-1831,264.3,545.10.0000,-0.2865,2.9983,0,0,0,1,1
69,0,55.8314,28.974,33420,-1867,268.3,543.50.0000,-0.2806,2.9988,0,0,0,1,1
70,0,55.8338,28.4779,33962.9,-1903,272.4,541.90.0000,-0.2748,2.9994,0,0,0,1,1
71,0,55.8363,27.9789,34504.3,-1939,276.6,540.40.0000,-0.2692,2.9999,0,0,0,1,1
72,0,55.8388,27.4769,35044.2,-1976,281,5390,-0.2638,3.0004,0,0,0,1,1
73,0,55.8413,26.9762,35582.8,-2013,285.4,537.60.0000,-0.2585,3.0008,0,0,0,1,1
74,0,55.8439,26.4769,36120.1,-2051,289.8,536.20.0000,-0.2532,3.0012,0,0,0,1,1
75,0,55.8465,25.9787,36656.1,-2090,294.4,534.70.0000,-0.2481,3.0017,0,0,0,1,1
76,0,55.8491,25.4816,37190.6,-2129,299,533.30.0000,-0.2431,3.0021,0,0,0,1,1
77,0,55.8518,24.9854,37723.7,-2169,303.7,531.80.0000,-0.2382,3.0025,0,0,0,1,1
78,0,55.8545,24.4899,38255.2,-2209,308.5,530.30.0000,-0.2334,3.0029,0,0,0,1,1
79,0,55.8573,23.9951,38785.2,-2251,313.3,528.80.0000,-0.2286,3.0033,0,0,0,1,1
80,0,55.8601,23.5007,39313.6,-2293,318.2,527.30.0000,-0.224,3.0037,0,0,0,1,1
81,0,55.863,23.0071,39840.4,-2335,323.2,525.70.0000,-0.2194,3.0041,0,0,0,1,1
82,0,55.8659,22.5142,40365.7,-2378,328.2,524.20.0000,-0.2149,3.0045,0,0,0,1,1
83,0,55.8688,22.0222,40889.5,-2422,333.3,522.60.0000,-0.2106,3.0049,0,0,0,1,1
84,0,55.8718,21.5309,41411.8,-2467,338.4,5210,-0.2063,3.0053,0,0,0,1,1
85,0,55.8749,21.0403,41932.6,-2512,343.6,519.50.0000,-0.2021,3.0057,0,0,0,1,1
86,0,55.8779,20.5504,42451.8,-2559,348.9,517.90.0000,-0.1979,3.0061,0,0,0,1,1
87,0,55.8811,20.061,42969.5,-2606,354.2,516.40.0000,-0.1939,3.0065,0,0,0,1,1
88,0,55.8842,19.5723,43485.7,-2654,359.6,514.80.0000,-0.1899,3.0069,0,0,0,1,1
89,0,55.8875,19.0841,44000.2,-2703,365.1,513.30.0000,-0.186,3.0073,0,0,0,1,1
90,0,55.8908,18.5966,44513.2,-2753,370.6,511.70.0000,-0.1822,3.0078,0,0,0,1,1
91,0,55.8941,18.1099,45024.6,-2804,376.2,510.20.0000,-0.1784,3.0082,0,0,0,1,1
92,0,55.8975,17.6238,45534.4,-2855,381.8,508.60.0000,-0.1748,3.0087,0,0,0,1,1
93,0,55.9009,17.1383,46042.7,-2908,387.5,507.10.0000,-0.1712,3.0091,0,0,0,1,1
94,0,55.9044,16.6534,46549.5,-2961,393.2,505.60.0000,-0.1676,3.0096,0,0,0,1,1
95,0,55.9079,16.1688,47054.9,-3016,399.1,504.10.0000,-0.1642,3.01,0,0,0,1,1
96,0,55.9115,15.6846,47558.9,-3072,405,502.60.0000,-0.1608,3.0105,0,0,0,1,1
97,0,55.9151,15.2007,48061.5,-3130,410.9,501.20.0000,-0.1575,3.011,0,0,0,1,1
98,0,55.9188,14.7182,48562.7,-3189,417,499.70.0000,-0.1542,3.0116,0,0,0,1,1
99,0,55.9225,14.2393,49062.2,-3248,423,498.30.0000,-0.151,3.0121,0,0,0,1,1
100,0,55.9263,13.7626,49560.2,-3309,429,496.80.0000,-0.1478,3.0127,0,0,0,1,1
101,0,55.9302,13.2865,50056.7,-3371,435.1,495.40.0000,-0.1447,3.0132,0,0,0,1,1
102,0,55.9341,12.8094,50551.9,-3434,441.3,4940,-0.1417,3.0138,0,0,0,1,1
103,0,55.938,12.3298,51046,-3499,447.5,492.70.0000,-0.1388,3.0144,0,0,0,1,1
104,0,55.942,11.846,51539,-3566,453.8,491.40.0000,-0.1359,3.015,0,0,0,1,1
105,0,55.9461,11.3566,52031,-3634,460.3,490.30.0000,-0.133,3.0156,0,0,0,1,1
106,0,55.9502,10.8595,52522.3,-3705,466.9,489.30.0000,-0.1303,3.0162,0,0,0,1,1
107,0,55.9544,10.3177,53013,-3782,474.1,488.80.0000,-0.1275,3.0169,0,0,0,1,1
108,0,55.9587,9.7243,53503.1,-3866,481.9,4890,-0.1249,3.0176,0,0,0,1,1
109,0,55.963,9.1058,53992.3,-3954,490.1,489.40.0000,-0.1222,3.0183,0,0,0,1,1
110,0,55.9674,8.4884,54480.5,-4043,498.3,489.80.0000,-0.1197,3.019,0,0,0,1,1
111,0,55.9718,7.8985,54967.3,-4130,506.1,489.80.0000,-0.1172,3.0197,0,0,0,1,1
112,0,55.9763,7.3623,55452.5,-4213,513.2,489.30.0000,-0.1148,3.0204,0,0,0,1,1
113,0,55.9808,6.9062,55935.9,-4289,519.4,487.90.0000,-0.1124,3.0211,0,0,0,1,1
114,0,55.9853,6.5566,56417.2,-4355,524.2,485.50.0000,-0.1102,3.0218,0,0,0,1,1
115,0,55.9899,6.3355,56896.3,-4408,527.3,481.80.0000,-0.1081,3.0225,0,0,0,1,1
116,0,55.9945,6.2142,57373.2,-4441,528.2,4770,-0.1062,3.0232,0,0,0,1,1
117,0,55.9992,6.1554,57847,-4462,527.4,471.50.0000,-0.1046,3.0239,0,0,0,1,1
118,0,56.0039,6.1267,58316.5,-4478,526,465.80.0000,-0.1029,3.0247,0,0,0,1,1
119,0,56.0086,6.0957,58780.4,-4497,524.9,460.30.0000,-0.1013,3.0254,0,0,0,1,1
120,0,56.0133,6.0404,59238.2,-4522,524.5,455.20.0000,-0.0997,3.0261,0,0,0,1,1
121,0,56.018,5.9707,59690.8,-4548,524.1,450.20.0000,-0.098,3.0269,0,0,0,1,1
122,0,56.0226,5.8929,60138.4,-4574,523.6,445.20.0000,-0.0964,3.0276,0,0,0,1,1
123,0,56.0273,5.8131,60580.9,-4601,523.1,440.20.0000,-0.0948,3.0284,0,0,0,1,1
124,0,56.0319,5.7372,61018.4,-4627,522.6,435.10.0000,-0.0932,3.0291,0,0,0,1,1
125,0,56.0366,5.6633,61451.2,-4654,522.1,430.10.0000,-0.0916,3.0299,0,0,0,1,1
126,0,56.0412,5.589,61879,-4682,521.5,4250,-0.09,3.0306,0,0,0,1,1
127,0,56.0459,5.5142,62301.6,-4709,520.9,419.90.0000,-0.0884,3.0314,0,0,0,1,1
128,0,56.0505,5.4389,62718.9,-4737,520.1,414.70.0000,-0.0868,3.0322,0,0,0,1,1
129,0,56.0551,5.3632,63130.6,-4765,519,409.40.0000,-0.0852,3.0331,0,0,0,1,1
130,0,56.0597,5.2871,63536.9,-4794,517.7,403.80.0000,-0.0835,3.034,0,0,0,1,1
131,0,56.0643,5.2105,63937.8,-4823,516.2,398.10.0000,-0.0819,3.035,0,0,0,1,1
132,0,56.0689,5.1334,64333.5,-4853,514.4,392.60.0000,-0.0803,3.036,0,0,0,1,1
133,0,56.0735,5.0559,64723.9,-4882,512.5,387.20.0000,-0.0787,3.037,0,0,0,1,1
134,0,56.078,4.9778,65108.9,-4912,510.2,382.10.0000,-0.0772,3.0381,0,0,0,1,1
135,0,56.0825,4.8993,65488.4,-4943,507.7,377.20.0000,-0.0758,3.0392,0,0,0,1,1
136,0,56.0871,4.8203,65862.8,-4974,504.9,372.50.0000,-0.0744,3.0404,0,0,0,1,1
137,0,56.0915,4.7408,66232.6,-5005,502.1,367.80.0000,-0.073,3.0416,0,0,0,1,1
138,0,56.096,4.6608,66598.2,-5037,499.3,363.30.0000,-0.0717,3.0428,0,0,0,1,1
139,0,56.1004,4.5802,66959.2,-5068,496.5,358.80.0000,-0.0703,3.044,0,0,0,1,1
140,0,56.1048,4.4992,67315.7,-5101,493.6,354.50.0000,-0.0691,3.0451,0,0,0,1,1
141,0,56.1092,4.4176,67667.8,-5134,490.6,350.20.0000,-0.0678,3.0463,0,0,0,1,1
142,0,56.1135,4.3355,68015.7,-5167,487.6,3460,-0.0666,3.0475,0,0,0,1,1
143,0,56.1178,4.2529,68359.7,-5200,484.5,341.90.0000,-0.0654,3.0487,0,0,0,1,1
144,0,56.1221,4.1697,68699.3,-5234,481.3,337.80.0000,-0.0642,3.0499,0,0,0,1,1
145,0,56.1264,4.086,69034.8,-5268,478.1,333.70.0000,-0.063,3.0511,0,0,0,1,1
146,0,56.1306,4.0017,69366.3,-5303,474.8,329.80.0000,-0.0619,3.0523,0,0,0,1,1
147,0,56.1348,3.9169,69694.1,-5339,471.5,325.80.0000,-0.0607,3.0535,0,0,0,1,1
148,0,56.139,3.8314,70017.8,-5374,468.1,3220,-0.0596,3.0547,0,0,0,1,1
149,0,56.1432,3.7455,70337.6,-5410,464.6,318.20.0000,-0.0585,3.0559,0,0,0,1,1
150,0,56.1473,3.6589,70653.6,-5447,461,314.40.0000,-0.0575,3.0572,0,0,0,1,1
151,0,56.1513,3.5717,70965.9,-5484,457.4,310.70.0000,-0.0564,3.0584,0,0,0,1,1
152,0,56.1554,3.4839,71274.9,-5522,453.6,307.10.0000,-0.0554,3.0596,0,0,0,1,1
153,0,56.1594,3.3955,71580,-5560,449.9,303.60.0000,-0.0544,3.0609,0,0,0,1,1
154,0,56.1634,3.3065,71881.6,-5599,446,300.20.0000,-0.0534,3.0621,0,0,0,1,1
155,0,56.1673,3.2169,72179.8,-5638,442.1,296.80.0000,-0.0524,3.0633,0,0,0,1,1
156,0,56.1712,3.1266,72474.8,-5677,438,293.60.0000,-0.0515,3.0646,0,0,0,1,1
157,0,56.1751,3.0357,72766.6,-5718,434,290.40.0000,-0.0506,3.0658,0,0,0,1,1
158,0,56.1789,2.9442,73055,-5759,429.8,287.20.0000,-0.0497,3.0671,0,0,0,1,1
159,0,56.1827,2.852,73340.3,-5800,425.5,284.20.0000,-0.0488,3.0684,0,0,0,1,1
160,0,56.1865,2.7591,73622.7,-5842,421.2,281.30.0000,-0.048,3.0696,0,0,0,1,1
161,0,56.1902,2.6655,73902.4,-5885,416.7,278.40.0000,-0.0472,3.0709,0,0,0,1,1
162,0,56.1939,2.5712,74179.2,-5928,412.2,275.70.0000,-0.0464,3.0722,0,0,0,1,1
163,0,56.1975,2.4763,74453.1,-5972,407.5,273.20.0000,-0.0456,3.0735,0,0,0,1,1
164,0,56.2011,2.3806,74724.3,-6017,402.8,270.60.0000,-0.0448,3.0748,0,0,0,1,1
165,0,56.2047,2.2842,74992.9,-6062,397.9,2680,-0.0441,3.0761,0,0,0,1,1
166,0,56.2082,2.187,75259.4,-6109,392.6,265.20.0000,-0.0433,3.0774,0,0,0,1,1
167,0,56.2116,2.0891,75523.7,-6155,386.9,262.30.0000,-0.0425,3.0788,0,0,0,1,1
168,0,56.215,1.9905,75785.3,-6203,381.1,259.40.0000,-0.0417,3.0802,0,0,0,1,1
169,0,56.2184,1.8911,76043.6,-6252,375.7,256.30.0000,-0.0409,3.0816,0,0,0,1,1
170,0,56.2217,1.7909,76298.2,-6301,371.1,2530,-0.0401,3.0828,0,0,0,1,1
171,0,56.225,1.6899,76549.1,-6351,367.5,249.30.0000,-0.0392,3.0838,0,0,0,1,1
172,0,56.2283,1.5881,76796.5,-6402,364.5,245.30.0000,-0.0382,3.0847,0,0,0,1,1
173,0,56.2315,1.4855,77040.6,-6453,362.1,241.20.0000,-0.0373,3.0855,0,0,0,1,1
174,0,56.2347,1.382,77281.3,-6506,360,237.40.0000,-0.0364,3.0863,0,0,0,1,1
175,0,56.2379,1.2776,77518.5,-6559,358.1,2340,-0.0356,3.087,0,0,0,1,1
176,0,56.241,1.1722,77751.7,-6613,356.6,2310,-0.0349,3.0877,0,0,0,1,1
177,0,56.2441,1.0659,77981.6,-6667,355.5,228.30.0000,-0.0342,3.0883,0,0,0,1,1
178,0,56.2472,0.9589,78208.9,-6724,354.8,225.60.0000,-0.0335,3.0889,0,0,0,1,1
179,0,56.2504,0.8515,78434.7,-6782,354.5,222.70.0000,-0.0328,3.0894,0,0,0,1,1
180,0,56.2535,0.7427,78656.3,-6845,355.6,219.60.0000,-0.032,3.0897,0,0,0,1,1
181,0,56.2567,0.6328,78874.2,-6910,357.7,216.30.0000,-0.0312,3.0899,0,0,0,1,1
182,0,56.2599,0.5219,79088.7,-6976,361.3,212.60.0000,-0.0304,3.0898,0,0,0,1,1
183,0,56.2631,0.4099,79299.2,-7044,366.7,208.40.0000,-0.0295,3.0896,0,0,0,1,1
184,0,56.2664,0.2968,79505.2,-7112,374.6,203.40.0000,-0.0286,3.089,0,0,0,1,1
185,0,56.2698,0.1827,79705.8,-7181,386.1,197.20.0000,-0.0274,3.0879,0,0,0,1,1
186,0,56.2733,0.0673,79901.6,-7259,400.5,1900,-0.0261,3.0865,0,0,0,1,1
187,0,56.2768,-0.0485,80077.7,-7292,406.2,184.10.0000,-0.0252,3.086,0,0,0,1,1
188,0,56.2803,-0.164,80242.5,-7292,405.9,179.50.0000,-0.0246,3.086,0,0,0,1,1
189,0,56.2838,-0.2795,80405.6,-7290,405.3,175.20.0000,-0.024,3.0861,0,0,0,1,1
190,0,56.2873,-0.395,80567,-7289,404.5,171.30.0000,-0.0235,3.0862,0,0,0,1,1
191,0,56.2909,-0.5105,80726.8,-7287,403.3,167.60.0000,-0.023,3.0863,0,0,0,1,1
192,0,56.2945,-0.626,80885,-7284,401.9,164.20.0000,-0.0225,3.0865,0,0,0,1,1
193,0,56.2981,-0.7414,81041.6,-7281,400.3,1610,-0.0221,3.0867,0,0,0,1,1
194,0,56.3017,-0.8569,81196.7,-7278,398.4,158.10.0000,-0.0217,3.0869,0,0,0,1,1
195,0,56.3053,-0.9723,81350.3,-7274,396.2,155.50.0000,-0.0213,3.0872,0,0,0,1,1
196,0,56.3089,-1.0877,81502.5,-7270,393.8,1530,-0.021,3.0875,0,0,0,1,1
197,0,56.3125,-1.2032,81653.3,-7265,391.2,150.80.0000,-0.0207,3.0878,0,0,0,1,1
198,0,56.3161,-1.3185,81802.6,-7260,388.4,148.80.0000,-0.0205,3.0881,0,0,0,1,1
199,0,56.3197,-1.4339,81950.7,-7255,385.4,1470,-0.0202,3.0885,0,0,0,1,1
200,0,56.3233,-1.5492,82097.4,-7249,382.2,145.30.0000,-0.02,3.0889,0,0,0,1,1
201,0,56.3269,-1.6645,82242.9,-7244,378.9,143.80.0000,-0.0198,3.0893,0,0,0,1,1
202,0,56.3305,-1.7798,82387.1,-7238,375.3,142.50.0000,-0.0197,3.0898,0,0,0,1,1
203,0,56.334,-1.8951,82530.1,-7232,371.7,141.20.0000,-0.0195,3.0902,0,0,0,1,1
204,0,56.3376,-2.0103,82672,-7226,367.8,140.10.0000,-0.0194,3.0907,0,0,0,1,1
205,0,56.3411,-2.1254,82812.7,-7220,363.8,139.10.0000,-0.0192,3.0912,0,0,0,1,1
206,0,56.3445,-2.2406,82952.4,-7213,359.7,138.20.0000,-0.0191,3.0918,0,0,0,1,1
207,0,56.348,-2.3557,83091,-7207,355.5,137.30.0000,-0.019,3.0923,0,0,0,1,1
208,0,56.3513,-2.4707,83228.6,-7201,351.1,136.50.0000,-0.0189,3.0929,0,0,0,1,1
209,0,56.3547,-2.5857,83365.2,-7194,346.7,135.80.0000,-0.0188,3.0934,0,0,0,1,1
210,0,56.358,-2.7007,83500.9,-7188,342.2,1350,-0.0188,3.094,0,0,0,1,1
211,0,56.3612,-2.8156,83635.7,-7182,337.5,134.30.0000,-0.0187,3.0946,0,0,0,1,1
212,0,56.3644,-2.9304,83769.6,-7176,332.8,133.70.0000,-0.0186,3.0952,0,0,0,1,1
213,0,56.3676,-3.0452,83902.7,-7170,328.1,132.90.0000,-0.0185,3.0959,0,0,0,1,1
214,0,56.3707,-3.1599,84035,-7164,323.3,132.20.0000,-0.0184,3.0965,0,0,0,1,1
215,0,56.3737,-3.2746,84166.5,-7159,318.4,131.50.0000,-0.0183,3.0971,0,0,0,1,1
216,0,56.3766,-3.3892,84297.3,-7154,313.5,130.70.0000,-0.0182,3.0978,0,0,0,1,1
217,0,56.3795,-3.5038,84427.4,-7149,308.5,129.80.0000,-0.0181,3.0985,0,0,0,1,1
218,0,56.3823,-3.6183,84556.9,-7144,303.6,128.90.0000,-0.018,3.0991,0,0,0,1,1
219,0,56.385,-3.7327,84685.7,-7139,298.6,127.80.0000,-0.0179,3.0998,0,0,0,1,1
220,0,56.3877,-3.847,84814,-7135,293.6,126.70.0000,-0.0177,3.1005,0,0,0,1,1
221,0,56.3902,-3.9613,84941.7,-7132,288.6,125.50.0000,-0.0176,3.1011,0,0,0,1,1
222,0,56.3928,-4.0755,85068.5,-7128,283.5,124.20.0000,-0.0174,3.1018,0,0,0,1,1
223,0,56.3953,-4.1896,85194.4,-7125,278.3,1230,-0.0173,3.1026,0,0,0,1,1
224,0,56.3979,-4.3037,85319.3,-7121,272.9,121.90.0000,-0.0171,3.1033,0,0,0,1,1
225,0,56.4004,-4.4178,85443.2,-7118,267.4,120.80.0000,-0.017,3.104,0,0,0,1,1
226,0,56.403,-4.5317,85566.2,-7115,261.8,119.70.0000,-0.0168,3.1048,0,0,0,1,1
227,0,56.4055,-4.6456,85688.2,-7112,256,118.60.0000,-0.0167,3.1056,0,0,0,1,1
228,0,56.408,-4.7595,85809.3,-7109,250.1,117.60.0000,-0.0165,3.1064,0,0,0,1,1
229,0,56.4105,-4.8733,85929.5,-7106,244.2,116.60.0000,-0.0164,3.1072,0,0,0,1,1
230,0,56.4129,-4.987,86048.7,-7103,238.1,115.60.0000,-0.0163,3.1081,0,0,0,1,1
231,0,56.4153,-5.1007,86167,-7100,231.9,114.60.0000,-0.0161,3.1089,0,0,0,1,1
232,0,56.4177,-5.2144,86284.3,-7097,225.6,113.70.0000,-0.016,3.1098,0,0,0,1,1
233,0,56.42,-5.328,86400.7,-7095,219.2,112.80.0000,-0.0159,3.1107,0,0,0,1,1
234,0,56.4222,-5.4415,86516.2,-7092,212.8,111.80.0000,-0.0158,3.1116,0,0,0,1,1
235,0,56.4244,-5.555,86630.7,-7089,206.2,110.90.0000,-0.0156,3.1125,0,0,0,1,1
236,0,56.4266,-5.6685,86744.4,-7087,199.6,1100,-0.0155,3.1134,0,0,0,1,1
237,0,56.4286,-5.7819,86857.1,-7084,192.9,109.20.0000,-0.0154,3.1144,0,0,0,1,1
238,0,56.4306,-5.8953,86968.9,-7082,186.2,108.30.0000,-0.0153,3.1153,0,0,0,1,1
239,0,56.4325,-6.0086,87079.7,-7079,179.3,107.40.0000,-0.0152,3.1163,0,0,0,1,1
240,0,56.4344,-6.1219,87189.7,-7077,172.4,106.60.0000,-0.0151,3.1172,0,0,0,1,1
241,0,56.4361,-6.2352,87298.8,-7075,165.5,105.70.0000,-0.0149,3.1182,0,0,0,1,1
242,0,56.4378,-6.3484,87406.9,-7072,158.5,104.80.0000,-0.0148,3.1192,0,0,0,1,1
243,0,56.4393,-6.4616,87514.1,-7070,151.5,1040,-0.0147,3.1202,0,0,0,1,1
244,0,56.4408,-6.5747,87620.5,-7068,144.4,103.10.0000,-0.0146,3.1212,0,0,0,1,1
245,0,56.4422,-6.6878,87725.9,-7065,137.2,102.20.0000,-0.0145,3.1222,0,0,0,1,1
246,0,56.4434,-6.8009,87830.5,-7063,130.1,101.40.0000,-0.0143,3.1232,0,0,0,1,1
247,0,56.4445,-6.914,87934.1,-7061,122.9,100.50.0000,-0.0142,3.1242,0,0,0,1,1
248,0,56.4455,-7.027,88036.9,-7059,115.7,99.580.0000,-0.0141,3.1252,0,0,0,1,1
249,0,56.4464,-7.14,88138.8,-7057,108.4,98.670.0000,-0.014,3.1262,0,0,0,1,1
250,0,56.4471,-7.253,88239.7,-7054,101.2,97.750.0000,-0.0139,3.1272,0,0,0,1,1
251,0,56.4477,-7.3659,88339.9,-7052,93.93,96.810.0000,-0.0137,3.1283,0,0,0,1,1
252,0,56.4482,-7.4788,88439.1,-7050,86.67,95.860.0000,-0.0136,3.1293,0,0,0,1,1
253,0,56.4485,-7.5917,88537.4,-7048,79.4,94.890.0000,-0.0135,3.1303,0,0,0,1,1
254,0,56.4487,-7.7046,88634.9,-7045,72.13,93.890.0000,-0.0133,3.1314,0,0,0,1,1
255,0,56.4487,-7.8175,88731.6,-7043,64.86,92.880.0000,-0.0132,3.1324,0,0,0,1,1
256,0,56.4487,-7.9303,88827.6,-7041,57.53,91.870.0000,-0.013,3.1334,0,0,0,1,1
257,0,56.4487,-8.0431,88923.1,-7039,50.11,90.850.0000,-0.0129,3.1345,0,0,0,1,1
258,0,56.4487,-8.1559,89017.9,-7037,42.63,89.840.0000,-0.0128,3.1355,0,0,0,1,1
259,0,56.4486,-8.2686,89112.1,-7035,35.07,88.830.0000,-0.0126,3.1366,0,0,0,1,1
260,0,56.4486,-8.3813,89205.6,-7033,27.45,87.810.0000,-0.0125,3.1377,0,0,0,1,1
261,0,56.4486,-8.494,89298.4,-7031,19.77,86.80.0000,-0.0123,3.1388,0,0,0,1,1
262,0,56.4485,-8.6066,89390.4,-7029,12.02,85.780.0000,-0.0122,3.1399,0,0,0,1,1
263,0,56.4484,-8.7192,89481.7,-7027,4.226,84.760.0000,-0.0121,3.141,0,0,0,1,1
264,0,56.4483,-8.8318,89572.1,-7025,-3.626,83.740.0000,-0.0119,-3.1411,0,0,0,1,1
265,0,56.4482,-8.9443,89661.7,-7023,-11.53,82.720.0000,-0.0118,-3.14,0,0,0,1,1
266,0,56.448,-9.0568,89750.5,-7021,-19.47,81.690.0000,-0.0116,-3.1388,0,0,0,1,1
267,0,56.4478,-9.1693,89838.3,-7019,-27.46,80.660.0000,-0.0115,-3.1377,0,0,0,1,1
268,0,56.4476,-9.2817,89925.2,-7017,-35.48,79.630.0000,-0.0113,-3.1365,0,0,0,1,1
269,0,56.4474,-9.3941,90011.1,-7015,-43.55,78.590.0000,-0.0112,-3.1354,0,0,0,1,1
270,0,56.4471,-9.5065,90096.1,-7013,-51.64,77.550.0000,-0.0111,-3.1342,0,0,0,1,1
271,0,56.4467,-9.6188,90180,-7011,-59.76,76.50.0000,-0.0109,-3.1331,0,0,0,1,1
272,0,56.4463,-9.7311,90262.8,-7010,-67.91,75.450.0000,-0.0108,-3.1319,0,0,0,1,1
273,0,56.4459,-9.8434,90344.5,-7008,-76.07,74.390.0000,-0.0106,-3.1307,0,0,0,1,1
274,0,56.4455,-9.9556,90425.1,-7006,-84.26,73.320.0000,-0.0105,-3.1296,0,0,0,1,1
275,0,56.4449,-10.0678,90504.6,-7004,-92.46,72.250.0000,-0.0103,-3.1284,0,0,0,1,1
276,0,56.4444,-10.18,90582.8,-7002,-100.7,71.170.0000,-0.0102,-3.1272,0,0,0,1,1
277,0,56.4437,-10.2921,90659.8,-7001,-108.9,70.080.0000,-0.01,-3.126,0,0,0,1,1
278,0,56.443,-10.4042,90735.6,-6999,-117.1,68.980.0000,-0.0099,-3.1249,0,0,0,1,1
279,0,56.4423,-10.5162,90810.1,-6997,-125.3,67.880.0000,-0.0097,-3.1237,0,0,0,1,1
280,0,56.4415,-10.6282,90883.2,-6995,-133.6,66.760.0000,-0.0095,-3.1225,0,0,0,1,1
281,0,56.4406,-10.7402,90955,-6993,-141.8,65.640.0000,-0.0094,-3.1213,0,0,0,1,1
282,0,56.4396,-10.8521,91025.5,-6992,-150,64.510.0000,-0.0092,-3.1201,0,0,0,1,1
283,0,56.4386,-10.964,91094.5,-6990,-158.2,63.370.0000,-0.0091,-3.119,0,0,0,1,1
284,0,56.4375,-11.0759,91162,-6988,-166.3,62.210.0000,-0.0089,-3.1178,0,0,0,1,1
285,0,56.4363,-11.1877,91228.1,-6986,-174.5,61.050.0000,-0.0087,-3.1166,0,0,0,1,1
286,0,56.4351,-11.2995,91292.7,-6984,-182.6,59.870.0000,-0.0086,-3.1155,0,0,0,1,1
287,0,56.4337,-11.4113,91355.7,-6982,-190.7,58.690.0000,-0.0084,-3.1143,0,0,0,1,1
288,0,56.4323,-11.523,91417.1,-6980,-198.8,57.490.0000,-0.0082,-3.1131,0,0,0,1,1
289,0,56.4308,-11.6347,91477.2,-6979,-206.8,56.270.0000,-0.0081,-3.112,0,0,0,1,1
290,0,56.4292,-11.7464,91536.7,-6977,-214.9,55.050.0000,-0.0079,-3.1108,0,0,0,1,1
291,0,56.4275,-11.858,91595.8,-6975,-222.9,53.810.0000,-0.0077,-3.1096,0,0,0,1,1
292,0,56.4257,-11.9696,91654.5,-6973,-231,52.560.0000,-0.0075,-3.1085,0,0,0,1,1
293,0,56.4238,-12.0811,91712.6,-6971,-239.1,51.30.0000,-0.0074,-3.1073,0,0,0,1,1
294,0,56.4218,-12.1927,91770,-6969,-247.2,50.030.0000,-0.0072,-3.1061,0,0,0,1,1
295,0,56.4197,-12.3042,91826.7,-6967,-255.3,48.750.0000,-0.007,-3.105,0,0,0,1,1
296,0,56.4175,-12.4157,91882.5,-6965,-263.4,47.450.0000,-0.0068,-3.1038,0,0,0,1,1
297,0,56.4152,-12.5271,91937.4,-6964,-271.5,46.150.0000,-0.0066,-3.1026,0,0,0,1,1
298,0,56.4129,-12.6385,91991.3,-6962,-279.7,44.840.0000,-0.0064,-3.1014,0,0,0,1,1
299,0,56.4104,-12.7499,92044.2,-6960,-287.8,43.520.0000,-0.0062,-3.1003,0,0,0,1,1
300,0,56.4079,-12.8612,92095.8,-6958,-295.9,42.190.0000,-0.0061,-3.0991,0,0,0,1,1
301,0,56.4053,-12.9725,92146.1,-6956,-304.1,40.850.0000,-0.0059,-3.0979,0,0,0,1,1
302,0,56.4026,-13.0838,92195.1,-6954,-312.2,39.50.0000,-0.0057,-3.0967,0,0,0,1,1
303,0,56.3998,-13.195,92242.6,-6952,-320.4,38.150.0000,-0.0055,-3.0955,0,0,0,1,1
304,0,56.397,-13.3062,92288.6,-6950,-328.5,36.790.0000,-0.0053,-3.0944,0,0,0,1,1
305,0,56.394,-13.4174,92332.9,-6949,-336.7,35.420.0000,-0.0051,-3.0932,0,0,0,1,1
306,0,56.391,-13.5285,92375.5,-6947,-344.8,34.050.0000,-0.0049,-3.092,0,0,0,1,1
307,0,56.3879,-13.6395,92416.3,-6945,-352.9,32.680.0000,-0.0047,-3.0908,0,0,0,1,1
308,0,56.3848,-13.7506,92455.3,-6943,-361.1,31.30.0000,-0.0045,-3.0896,0,0,0,1,1
309,0,56.3815,-13.8616,92492.2,-6941,-369.2,29.910.0000,-0.0043,-3.0884,0,0,0,1,1
310,0,56.3782,-13.9725,92527.1,-6939,-377.3,28.520.0000,-0.0041,-3.0873,0,0,0,1,1
311,0,56.3748,-14.0834,92559.8,-6937,-385.5,27.130.0000,-0.0039,-3.0861,0,0,0,1,1
312,0,56.3713,-14.1943,92590.2,-6935,-393.6,25.730.0000,-0.0037,-3.0849,0,0,0,1,1
313,0,56.3678,-14.3051,92618.3,-6933,-401.7,24.330.0000,-0.0035,-3.0837,0,0,0,1,1
314,0,56.3642,-14.4159,92644,-6932,-409.8,22.930.0000,-0.0033,-3.0825,0,0,0,1,1
315,0,56.3605,-14.5266,92667.2,-6930,-417.9,21.530.0000,-0.0031,-3.0814,0,0,0,1,1
316,0,56.3568,-14.6373,92687.8,-6928,-425.9,20.120.0000,-0.0029,-3.0802,0,0,0,1,1
317,0,56.353,-14.7479,92705.7,-6926,-434,18.720.0000,-0.0027,-3.079,0,0,0,1,1
318,0,56.3491,-14.8585,92720.8,-6924,-442.1,17.310.0000,-0.0025,-3.0778,0,0,0,1,1
319,0,56.3452,-14.969,92733,-6922,-450.1,15.910.0000,-0.0023,-3.0767,0,0,0,1,1
320,0,56.3412,-15.0795,92742.3,-6920,-458.1,14.50.0000,-0.0021,-3.0755,0,0,0,1,1
321,0,56.3372,-15.1899,92748.6,-6918,-466.1,13.10.0000,-0.0019,-3.0743,0,0,0,1,1
322,0,56.3331,-15.3003,92751.7,-6916,-474.1,11.70.0000,-0.0017,-3.0731,0,0,0,1,1
323,0,56.3289,-15.4107,92752,-6914,-482.1,10.30.0000,-0.0015,-3.072,0,0,0,1,1
324,0,56.3247,-15.521,92752,-6912,-490.1,8.8870.0000,-0.0013,-3.0708,0,0,0,1,1
325,0,56.3203,-15.6312,92751.9,-6910,-498,7.4680.0000,-0.0011,-3.0696,0,0,0,1,1
326,0,56.316,-15.7415,92751.6,-6908,-506,6.0410.0000,-0.0009,-3.0685,0,0,0,1,1
327,0,56.3115,-15.8516,92751.2,-6906,-514,4.6050.0000,-0.0007,-3.0673,0,0,0,1,1
328,0,56.307,-15.9618,92750.6,-6904,-522,3.1630.0000,-0.0005,-3.0661,0,0,0,1,1
329,0,56.3023,-16.0719,92749.6,-6902,-529.9,1.7140.0000,-0.0002,-3.065,0,0,0,1,1
330,0,56.2977,-16.182,92748.3,-6900,-537.9,0.25950.0000,0,-3.0638,0,0,0,1,1
331,0,56.2929,-16.292,92746.6,-6898,-545.9,-1.2010.0000,0.0002,-3.0626,0,0,0,1,1
332,0,56.2881,-16.402,92744.5,-6896,-553.9,-2.6650.0000,0.0004,-3.0614,0,0,0,1,1
333,0,56.2832,-16.512,92741.9,-6894,-561.8,-4.1340.0000,0.0006,-3.0603,0,0,0,1,1
334,0,56.2782,-16.6219,92738.7,-6892,-569.8,-5.6070.0000,0.0008,-3.0591,0,0,0,1,1
335,0,56.2732,-16.7317,92735,-6890,-577.7,-7.0820.0000,0.001,-3.0579,0,0,0,1,1
336,0,56.2681,-16.8416,92730.5,-6887,-585.7,-8.5590.0000,0.0012,-3.0568,0,0,0,1,1
337,0,56.2629,-16.9513,92725.4,-6885,-593.6,-10.040.0000,0.0015,-3.0556,0,0,0,1,1
338,0,56.2576,-17.061,92719.5,-6883,-601.5,-11.520.0000,0.0017,-3.0544,0,0,0,1,1
339,0,56.2523,-17.1707,92712.8,-6881,-609.4,-130,0.0019,-3.0533,0,0,0,1,1
340,0,56.2469,-17.2804,92705.3,-6879,-617.3,-14.480.0000,0.0021,-3.0521,0,0,0,1,1
341,0,56.2415,-17.3899,92696.8,-6877,-625.2,-15.960.0000,0.0023,-3.0509,0,0,0,1,1
342,0,56.2359,-17.4995,92687.4,-6875,-633,-17.440.0000,0.0025,-3.0498,0,0,0,1,1
343,0,56.2304,-17.6089,92676.9,-6873,-640.9,-18.910.0000,0.0027,-3.0486,0,0,0,1,1
344,0,56.2247,-17.7184,92665.4,-6871,-648.7,-20.380.0000,0.003,-3.0475,0,0,0,1,1
345,0,56.219,-17.8277,92652.8,-6869,-656.5,-21.850.0000,0.0032,-3.0463,0,0,0,1,1
346,0,56.2132,-17.9371,92639,-6866,-664.3,-23.320.0000,0.0034,-3.0451,0,0,0,1,1
347,0,56.2073,-18.0463,92624,-6864,-672.1,-24.780.0000,0.0036,-3.044,0,0,0,1,1
348,0,56.2014,-18.1555,92607.7,-6862,-679.9,-26.240.0000,0.0038,-3.0428,0,0,0,1,1
349,0,56.1954,-18.2647,92590,-6860,-687.6,-27.690.0000,0.004,-3.0417,0,0,0,1,1
350,0,56.1893,-18.3738,92571,-6858,-695.3,-29.130.0000,0.0042,-3.0406,0,0,0,1,1
351,0,56.1832,-18.4828,92550.5,-6856,-703,-30.570.0000,0.0044,-3.0394,0,0,0,1,1
352,0,56.177,-18.5918,92528.6,-6853,-710.6,-320,0.0046,-3.0383,0,0,0,1,1
353,0,56.1708,-18.7007,92505.1,-6851,-718.2,-33.420.0000,0.0049,-3.0371,0,0,0,1,1
354,0,56.1644,-18.8096,92480.1,-6849,-725.8,-34.830.0000,0.0051,-3.036,0,0,0,1,1
355,0,56.1581,-18.9184,92453.4,-6847,-733.4,-36.230.0000,0.0053,-3.0349,0,0,0,1,1
356,0,56.1516,-19.0271,92425,-6844,-741,-37.630.0000,0.0055,-3.0338,0,0,0,1,1
357,0,56.1451,-19.1358,92394.8,-6842,-748.5,-39.010.0000,0.0057,-3.0326,0,0,0,1,1
358,0,56.1385,-19.2444,92362.5,-6840,-756,-40.40.0000,0.0059,-3.0315,0,0,0,1,1
359,0,56.1319,-19.353,92328.1,-6837,-763.5,-41.790.0000,0.0061,-3.0304,0,0,0,1,1
360,0,56.1251,-19.4615,92291.7,-6835,-771,-43.190.0000,0.0063,-3.0293,0,0,0,1,1
361,0,56.1183,-19.57,92253.3,-6833,-778.5,-44.60.0000,0.0065,-3.0281,0,0,0,1,1
362,0,56.1115,-19.6784,92213,-6830,-786,-460,0.0067,-3.027,0,0,0,1,1
363,0,56.1045,-19.7868,92170.8,-6828,-793.4,-47.410.0000,0.0069,-3.0259,0,0,0,1,1
364,0,56.0975,-19.8952,92126.8,-6826,-800.9,-48.820.0000,0.0071,-3.0248,0,0,0,1,1
365,0,56.0904,-20.0035,92080.9,-6823,-808.3,-50.220.0000,0.0073,-3.0237,0,0,0,1,1
366,0,56.0833,-20.1117,92033.4,-6821,-815.7,-51.630.0000,0.0075,-3.0226,0,0,0,1,1
367,0,56.0761,-20.2199,91984.1,-6819,-823.1,-53.030.0000,0.0077,-3.0215,0,0,0,1,1
368,0,56.0688,-20.328,91933.2,-6816,-830.5,-54.430.0000,0.0079,-3.0203,0,0,0,1,1
369,0,56.0614,-20.4361,91880.7,-6814,-837.9,-55.830.0000,0.0081,-3.0192,0,0,0,1,1
370,0,56.054,-20.5441,91826.7,-6812,-845.3,-57.220.0000,0.0083,-3.0181,0,0,0,1,1
371,0,56.0465,-20.6521,91771.1,-6809,-852.6,-58.60.0000,0.0085,-3.017,0,0,0,1,1
372,0,56.039,-20.76,91714.2,-6807,-859.9,-59.980.0000,0.0087,-3.0159,0,0,0,1,1
373,0,56.0313,-20.8679,91655.8,-6804,-867.2,-61.350.0000,0.0089,-3.0148,0,0,0,1,1
374,0,56.0237,-20.9757,91596,-6802,-874.4,-62.710.0000,0.0091,-3.0137,0,0,0,1,1
375,0,56.0159,-21.0834,91535,-6799,-881.6,-64.060.0000,0.0093,-3.0126,0,0,0,1,1
376,0,56.0081,-21.1911,91472.7,-6797,-888.8,-65.40.0000,0.0095,-3.0116,0,0,0,1,1
377,0,56.0003,-21.2987,91409.2,-6794,-896,-66.730.0000,0.0097,-3.0105,0,0,0,1,1
378,0,55.9923,-21.4062,91344.6,-6792,-903.1,-68.040.0000,0.0099,-3.0094,0,0,0,1,1
379,0,55.9844,-21.5137,91278.8,-6789,-910.2,-69.340.0000,0.0101,-3.0083,0,0,0,1,1
380,0,55.9763,-21.6211,91212,-6787,-917.2,-70.630.0000,0.0103,-3.0073,0,0,0,1,1
381,0,55.9682,-21.7285,91144.2,-6784,-924.3,-71.890.0000,0.0105,-3.0062,0,0,0,1,1
382,0,55.9601,-21.8358,91075.4,-6782,-931.2,-73.150.0000,0.0107,-3.0051,0,0,0,1,1
383,0,55.9519,-21.943,91005.7,-6779,-938.2,-74.380.0000,0.0109,-3.0041,0,0,0,1,1
384,0,55.9436,-22.0501,90935.2,-6777,-945.1,-75.60.0000,0.011,-3.003,0,0,0,1,1
385,0,55.9353,-22.1572,90863.8,-6774,-951.9,-76.790.0000,0.0112,-3.002,0,0,0,1,1
386,0,55.9269,-22.2642,90791.7,-6771,-958.7,-77.970.0000,0.0114,-3.0009,0,0,0,1,1
387,0,55.9185,-22.3711,90718.8,-6769,-965.5,-79.120.0000,0.0116,-2.9999,0,0,0,1,1
388,0,55.91,-22.478,90645.3,-6766,-972.2,-80.250.0000,0.0117,-2.9989,0,0,0,1,1
389,0,55.9015,-22.5848,90571.1,-6763,-978.8,-81.360.0000,0.0119,-2.9979,0,0,0,1,1
390,0,55.8929,-22.6914,90496.4,-6760,-985.4,-82.440.0000,0.0121,-2.9968,0,0,0,1,1
391,0,55.8842,-22.7981,90421,-6758,-992,-83.50.0000,0.0122,-2.9958,0,0,0,1,1
392,0,55.8755,-22.9046,90343.8,-6755,-998.5,-84.580.0000,0.0124,-2.9948,0,0,0,1,1
393,0,55.8668,-23.0112,90265,-6752,-1005,-85.680.0000,0.0125,-2.9938,0,0,0,1,1
394,0,55.8579,-23.1176,90184.5,-6749,-1012,-86.780.0000,0.0127,-2.9928,0,0,0,1,1
395,0,55.849,-23.224,90102.4,-6746,-1018,-87.90.0000,0.0129,-2.9918,0,0,0,1,1
396,0,55.84,-23.3304,90018.8,-6744,-1024,-89.020.0000,0.013,-2.9908,0,0,0,1,1
397,0,55.831,-23.4367,89933.8,-6741,-1031,-90.140.0000,0.0132,-2.9898,0,0,0,1,1
398,0,55.8219,-23.5429,89847.4,-6738,-1037,-91.260.0000,0.0134,-2.9888,0,0,0,1,1
399,0,55.8127,-23.6491,89759.7,-6735,-1044,-92.380.0000,0.0136,-2.9879,0,0,0,1,1
400,0,55.8035,-23.7552,89670.8,-6732,-1050,-93.50.0000,0.0137,-2.9869,0,0,0,1,1
401,0,55.7942,-23.8612,89580.7,-6729,-1056,-94.60.0000,0.0139,-2.9859,0,0,0,1,1
402,0,55.7848,-23.9672,89489.5,-6726,-1063,-95.690.0000,0.0141,-2.9849,0,0,0,1,1
403,0,55.7754,-24.0731,89397.2,-6724,-1069,-96.770.0000,0.0142,-2.984,0,0,0,1,1
404,0,55.7659,-24.1789,89304,-6721,-1075,-97.820.0000,0.0144,-2.983,0,0,0,1,1
405,0,55.7564,-24.2847,89209.9,-6718,-1081,-98.860.0000,0.0145,-2.982,0,0,0,1,1
406,0,55.7468,-24.3904,89114.9,-6715,-1087,-99.870.0000,0.0147,-2.9811,0,0,0,1,1
407,0,55.7372,-24.496,89019.2,-6712,-1093,-100.80.0000,0.0148,-2.9801,0,0,0,1,1
408,0,55.7275,-24.6016,88922.8,-6709,-1099,-101.80.0000,0.015,-2.9792,0,0,0,1,1
409,0,55.7178,-24.7071,88825.8,-6706,-1105,-102.70.0000,0.0151,-2.9782,0,0,0,1,1
410,0,55.708,-24.8125,88728.1,-6703,-1111,-103.60.0000,0.0152,-2.9773,0,0,0,1,1
411,0,55.6982,-24.9178,88630,-6700,-1117,-104.40.0000,0.0154,-2.9764,0,0,0,1,1
412,0,55.6883,-25.023,88531.5,-6697,-1123,-105.20.0000,0.0155,-2.9755,0,0,0,1,1
413,0,55.6783,-25.1282,88432.6,-6693,-1129,-1060,0.0156,-2.9746,0,0,0,1,1
414,0,55.6684,-25.2333,88333.4,-6690,-1134,-106.70.0000,0.0157,-2.9737,0,0,0,1,1
415,0,55.6584,-25.3383,88234,-6687,-1140,-107.30.0000,0.0158,-2.9728,0,0,0,1,1
416,0,55.6483,-25.4433,88134.5,-6684,-1145,-107.90.0000,0.0159,-2.9719,0,0,0,1,1
417,0,55.6382,-25.5481,88034.8,-6681,-1151,-108.40.0000,0.016,-2.971,0,0,0,1,1
418,0,55.6281,-25.6529,87935.1,-6678,-1156,-108.90.0000,0.0161,-2.9701,0,0,0,1,1
419,0,55.6179,-25.7576,87835.5,-6674,-1162,-109.30.0000,0.0161,-2.9692,0,0,0,1,1
420,0,55.6077,-25.8622,87736,-6671,-1167,-109.60.0000,0.0162,-2.9684,0,0,0,1,1
421,0,55.5974,-25.9667,87636.6,-6668,-1172,-109.90.0000,0.0162,-2.9675,0,0,0,1,1
422,0,55.5872,-26.0711,87537.6,-6664,-1178,-110.10.0000,0.0163,-2.9667,0,0,0,1,1
423,0,55.5769,-26.1754,87438.8,-6661,-1183,-110.20.0000,0.0163,-2.9659,0,0,0,1,1
424,0,55.5665,-26.2796,87340.4,-6658,-1188,-110.20.0000,0.0163,-2.965,0,0,0,1,1
425,0,55.5561,-26.3838,87242.1,-6654,-1193,-110.20.0000,0.0163,-2.9642,0,0,0,1,1
426,0,55.5457,-26.4878,87142.7,-6651,-1198,-110.20.0000,0.0163,-2.9634,0,0,0,1,1
427,0,55.5352,-26.5919,87042.1,-6647,-1203,-110.10.0000,0.0163,-2.9626,0,0,0,1,1
428,0,55.5246,-26.6958,86940.4,-6644,-1207,-110.10.0000,0.0163,-2.9618,0,0,0,1,1
429,0,55.514,-26.7997,86837.7,-6640,-1212,-1100,0.0163,-2.961,0,0,0,1,1
430,0,55.5033,-26.9034,86734,-6637,-1217,-1100,0.0163,-2.9602,0,0,0,1,1
431,0,55.4926,-27.0072,86629.6,-6633,-1222,-109.90.0000,0.0163,-2.9595,0,0,0,1,1
432,0,55.4818,-27.1108,86524.5,-6630,-1226,-109.90.0000,0.0163,-2.9587,0,0,0,1,1
433,0,55.471,-27.2144,86418.7,-6626,-1231,-109.80.0000,0.0163,-2.9579,0,0,0,1,1
434,0,55.4601,-27.3179,86312.3,-6622,-1235,-109.70.0000,0.0163,-2.9572,0,0,0,1,1
435,0,55.4492,-27.4213,86205.6,-6619,-1240,-109.70.0000,0.0163,-2.9564,0,0,0,1,1
436,0,55.4382,-27.5246,86098.4,-6615,-1244,-109.60.0000,0.0163,-2.9557,0,0,0,1,1
437,0,55.4272,-27.6279,85991.1,-6612,-1249,-109.50.0000,0.0163,-2.9549,0,0,0,1,1
438,0,55.4162,-27.7311,85883.5,-6608,-1253,-109.40.0000,0.0163,-2.9542,0,0,0,1,1
439,0,55.4051,-27.8342,85775.9,-6604,-1257,-109.30.0000,0.0163,-2.9535,0,0,0,1,1
440,0,55.3939,-27.9372,85668.2,-6600,-1261,-109.20.0000,0.0163,-2.9528,0,0,0,1,1
441,0,55.3828,-28.0401,85560.7,-6597,-1265,-109.10.0000,0.0162,-2.9521,0,0,0,1,1
442,0,55.3716,-28.1429,85453.4,-6593,-1270,-1090,0.0162,-2.9514,0,0,0,1,1
443,0,55.3603,-28.2457,85346.4,-6589,-1274,-108.90.0000,0.0162,-2.9507,0,0,0,1,1
444,0,55.349,-28.3484,85239.8,-6585,-1277,-108.80.0000,0.0162,-2.95,0,0,0,1,1
445,0,55.3377,-28.4509,85133.6,-6581,-1281,-108.60.0000,0.0162,-2.9493,0,0,0,1,1
446,0,55.3264,-28.5534,85028.1,-6578,-1285,-108.50.0000,0.0162,-2.9486,0,0,0,1,1
447,0,55.315,-28.6558,84923.1,-6574,-1289,-108.30.0000,0.0162,-2.948,0,0,0,1,1
448,0,55.3037,-28.7581,84819,-6570,-1293,-108.20.0000,0.0162,-2.9473,0,0,0,1,1
449,0,55.2922,-28.8603,84715.7,-6566,-1296,-1080,0.0161,-2.9467,0,0,0,1,1
450,0,55.2808,-28.9624,84613.3,-6562,-1300,-107.80.0000,0.0161,-2.946,0,0,0,1,1
451,0,55.2693,-29.0644,84512,-6558,-1303,-107.60.0000,0.0161,-2.9454,0,0,0,1,1
452,0,55.2579,-29.1663,84411.8,-6554,-1307,-107.40.0000,0.0161,-2.9448,0,0,0,1,1
453,0,55.2464,-29.2681,84312.8,-6550,-1310,-107.10.0000,0.016,-2.9442,0,0,0,1,1
454,0,55.2349,-29.3698,84215.1,-6546,-1314,-106.90.0000,0.016,-2.9435,0,0,0,1,1
455,0,55.2233,-29.4715,84118.9,-6542,-1317,-106.60.0000,0.016,-2.9429,0,0,0,1,1
456,0,55.2118,-29.573,84024.1,-6538,-1320,-106.40.0000,0.0159,-2.9423,0,0,0,1,1
457,0,55.2002,-29.6744,83930.9,-6534,-1323,-106.10.0000,0.0159,-2.9418,0,0,0,1,1
458,0,55.1887,-29.7756,83839.4,-6529,-1326,-105.80.0000,0.0159,-2.9412,0,0,0,1,1
459,0,55.1771,-29.8768,83749.4,-6525,-1329,-105.40.0000,0.0158,-2.9406,0,0,0,1,1
460,0,55.1655,-29.9779,83659.6,-6521,-1332,-1050,0.0158,-2.9401,0,0,0,1,1
461,0,55.1538,-30.079,83570.2,-6517,-1335,-104.50.0000,0.0157,-2.9395,0,0,0,1,1
462,0,55.1421,-30.1799,83481,-6513,-1338,-103.90.0000,0.0156,-2.939,0,0,0,1,1
463,0,55.1304,-30.2807,83392.3,-6508,-1341,-103.30.0000,0.0155,-2.9385,0,0,0,1,1
464,0,55.1186,-30.3815,83303.9,-6504,-1343,-102.50.0000,0.0154,-2.9379,0,0,0,1,1
465,0,55.1068,-30.4821,83216,-6500,-1346,-101.70.0000,0.0153,-2.9374,0,0,0,1,1
466,0,55.095,-30.5827,83128.7,-6495,-1348,-100.90.0000,0.0152,-2.9369,0,0,0,1,1
467,0,55.0832,-30.6832,83041.9,-6491,-1351,-99.920.0000,0.0151,-2.9364,0,0,0,1,1
468,0,55.0713,-30.7836,82955.7,-6486,-1353,-98.930.0000,0.0149,-2.936,0,0,0,1,1
469,0,55.0593,-30.8838,82870.2,-6482,-1355,-97.870.0000,0.0148,-2.9355,0,0,0,1,1
470,0,55.0474,-30.984,82785.5,-6477,-1357,-96.770.0000,0.0146,-2.935,0,0,0,1,1
471,0,55.0354,-31.0841,82701.5,-6473,-1359,-95.630.0000,0.0145,-2.9346,0,0,0,1,1
472,0,55.0234,-31.1842,82618.3,-6468,-1362,-94.430.0000,0.0143,-2.9341,0,0,0,1,1
473,0,55.0114,-31.2841,82536,-6464,-1364,-93.20.0000,0.0141,-2.9337,0,0,0,1,1
474,0,54.9994,-31.3839,82454.7,-6459,-1366,-91.940.0000,0.0139,-2.9332,0,0,0,1,1
475,0,54.9873,-31.4836,82374.3,-6455,-1368,-90.640.0000,0.0137,-2.9328,0,0,0,1,1
476,0,54.9752,-31.5832,82295,-6450,-1369,-89.320.0000,0.0135,-2.9324,0,0,0,1,1
477,0,54.9631,-31.6828,82216.7,-6446,-1371,-87.970.0000,0.0133,-2.932,0,0,0,1,1
478,0,54.951,-31.7822,82139.6,-6441,-1373,-86.610.0000,0.0131,-2.9316,0,0,0,1,1
479,0,54.9389,-31.8815,82063.6,-6437,-1375,-85.220.0000,0.0129,-2.9312,0,0,0,1,1
480,0,54.9267,-31.9808,81988.9,-6432,-1377,-83.830.0000,0.0127,-2.9308,0,0,0,1,1
481,0,54.9146,-32.0799,81915.5,-6427,-1378,-82.430.0000,0.0125,-2.9304,0,0,0,1,1
482,0,54.9024,-32.1789,81843.4,-6423,-1380,-81.020.0000,0.0123,-2.93,0,0,0,1,1
483,0,54.8902,-32.2779,81772.6,-6418,-1382,-79.620.0000,0.0121,-2.9296,0,0,0,1,1
484,0,54.878,-32.3767,81703.4,-6413,-1383,-78.210.0000,0.0119,-2.9292,0,0,0,1,1
485,0,54.8658,-32.4754,81635.6,-6409,-1385,-76.820.0000,0.0117,-2.9288,0,0,0,1,1
486,0,54.8536,-32.5741,81569.3,-6404,-1386,-75.430.0000,0.0115,-2.9284,0,0,0,1,1
487,0,54.8414,-32.6726,81504.6,-6400,-1388,-74.060.0000,0.0113,-2.928,0,0,0,1,1
488,0,54.8292,-32.771,81441.6,-6395,-1389,-72.710.0000,0.0111,-2.9277,0,0,0,1,1
489,0,54.817,-32.8693,81380.2,-6390,-1391,-71.380.0000,0.0109,-2.9273,0,0,0,1,1
490,0,54.8048,-32.9675,81320.6,-6386,-1392,-70.080.0000,0.0107,-2.9269,0,0,0,1,1
491,0,54.7925,-33.0656,81262.8,-6381,-1394,-68.810.0000,0.0105,-2.9265,0,0,0,1,1
492,0,54.7803,-33.1636,81206.8,-6377,-1395,-67.570.0000,0.0104,-2.9262,0,0,0,1,1
493,0,54.7681,-33.2615,81152.6,-6372,-1397,-66.350.0000,0.0102,-2.9258,0,0,0,1,1
494,0,54.7559,-33.3593,81099.8,-6367,-1398,-65.10.0000,0.01,-2.9254,0,0,0,1,1
495,0,54.7436,-33.457,81048.3,-6363,-1399,-63.830.0000,0.0098,-2.9251,0,0,0,1,1
496,0,54.7313,-33.5546,80998.1,-6358,-1401,-62.530.0000,0.0096,-2.9247,0,0,0,1,1
497,0,54.719,-33.6521,80949.4,-6353,-1402,-61.20.0000,0.0094,-2.9244,0,0,0,1,1
498,0,54.7068,-33.7494,80901.9,-6349,-1403,-59.860.0000,0.0092,-2.9241,0,0,0,1,1
499,0,54.6944,-33.8467,80855.8,-6344,-1404,-58.490.0000,0.009,-2.9238,0,0,0,1,1
500,0,54.6821,-33.9439,80811.1,-6339,-1405,-57.110.0000,0.0088,-2.9234,0,0,0,1,1
501,0,54.6698,-34.041,80767.7,-6335,-1406,-55.720.0000,0.0086,-2.9231,0,0,0,1,1
502,0,54.6574,-34.1379,80725.6,-6330,-1407,-54.310.0000,0.0084,-2.9228,0,0,0,1,1
503,0,54.6451,-34.2348,80684.9,-6325,-1408,-52.90.0000,0.0082,-2.9225,0,0,0,1,1
504,0,54.6327,-34.3315,80645.5,-6320,-1409,-51.480.0000,0.008,-2.9222,0,0,0,1,1
505,0,54.6203,-34.4282,80607.4,-6316,-1410,-50.060.0000,0.0077,-2.9219,0,0,0,1,1
506,0,54.6079,-34.5248,80570.7,-6311,-1411,-48.640.0000,0.0075,-2.9216,0,0,0,1,1
507,0,54.5955,-34.6212,80535.3,-6306,-1412,-47.230.0000,0.0073,-2.9213,0,0,0,1,1
508,0,54.5831,-34.7176,80501.2,-6302,-1413,-45.810.0000,0.0071,-2.9211,0,0,0,1,1
509,0,54.5707,-34.8139,80468.5,-6297,-1414,-44.40.0000,0.0069,-2.9208,0,0,0,1,1
510,0,54.5582,-34.9101,80437.1,-6292,-1414,-43.010.0000,0.0067,-2.9205,0,0,0,1,1
511,0,54.5458,-35.0061,80407,-6287,-1415,-41.620.0000,0.0065,-2.9202,0,0,0,1,1
512,0,54.5333,-35.1021,80378.2,-6283,-1416,-40.250.0000,0.0063,-2.9199,0,0,0,1,1
513,0,54.5209,-35.198,80350.7,-6278,-1417,-38.90.0000,0.006,-2.9197,0,0,0,1,1
514,0,54.5084,-35.2938,80324.6,-6273,-1417,-37.570.0000,0.0058,-2.9194,0,0,0,1,1
515,0,54.4959,-35.3895,80299.7,-6269,-1418,-36.250.0000,0.0056,-2.9191,0,0,0,1,1
516,0,54.4834,-35.4851,80276.2,-6264,-1419,-34.970.0000,0.0054,-2.9188,0,0,0,1,1
517,0,54.4709,-35.5806,80254,-6259,-1420,-33.710.0000,0.0053,-2.9185,0,0,0,1,1
518,0,54.4584,-35.676,80233.1,-6255,-1421,-32.480.0000,0.0051,-2.9183,0,0,0,1,1
519,0,54.4459,-35.7713,80213.5,-6250,-1421,-31.280.0000,0.0049,-2.918,0,0,0,1,1
520,0,54.4333,-35.8665,80195.1,-6245,-1422,-30.110.0000,0.0047,-2.9177,0,0,0,1,1
521,0,54.4208,-35.9616,80178.1,-6241,-1423,-28.990.0000,0.0045,-2.9174,0,0,0,1,1
522,0,54.4082,-36.0566,80162.4,-6236,-1424,-27.90.0000,0.0044,-2.9171,0,0,0,1,1
523,0,54.3957,-36.1516,80148,-6232,-1425,-26.850.0000,0.0042,-2.9168,0,0,0,1,1
524,0,54.3831,-36.2464,80134.9,-6227,-1426,-25.850.0000,0.004,-2.9165,0,0,0,1,1
525,0,54.3706,-36.3412,80123.1,-6223,-1427,-24.890.0000,0.0039,-2.9162,0,0,0,1,1
526,0,54.358,-36.4358,80112.6,-6218,-1428,-23.980.0000,0.0038,-2.9159,0,0,0,1,1
527,0,54.3454,-36.5304,80103.2,-6214,-1429,-23.120.0000,0.0036,-2.9156,0,0,0,1,1
528,0,54.3328,-36.6249,80094.4,-6210,-1430,-22.270.0000,0.0035,-2.9153,0,0,0,1,1
529,0,54.3202,-36.7193,80086.1,-6205,-1431,-21.450.0000,0.0034,-2.915,0,0,0,1,1
530,0,54.3076,-36.8135,80078.3,-6201,-1432,-20.660.0000,0.0032,-2.9147,0,0,0,1,1
531,0,54.295,-36.9077,80071,-6196,-1433,-19.880.0000,0.0031,-2.9143,0,0,0,1,1
532,0,54.2824,-37.0018,80064.2,-6192,-1434,-19.120.0000,0.003,-2.914,0,0,0,1,1
533,0,54.2697,-37.0957,80057.8,-6188,-1435,-18.390.0000,0.0029,-2.9137,0,0,0,1,1
534,0,54.2571,-37.1896,80051.9,-6184,-1436,-17.680.0000,0.0028,-2.9134,0,0,0,1,1
535,0,54.2445,-37.2834,80046.5,-6179,-1437,-16.990.0000,0.0027,-2.9131,0,0,0,1,1
536,0,54.2318,-37.377,80041.4,-6175,-1438,-16.330.0000,0.0026,-2.9127,0,0,0,1,1
537,0,54.2191,-37.4706,80036.8,-6171,-1440,-15.680.0000,0.0025,-2.9124,0,0,0,1,1
538,0,54.2065,-37.5641,80032.5,-6167,-1441,-15.060.0000,0.0024,-2.9121,0,0,0,1,1
539,0,54.1938,-37.6575,80028.6,-6162,-1442,-14.470.0000,0.0023,-2.9118,0,0,0,1,1
540,0,54.1811,-37.7508,80025,-6158,-1443,-13.90.0000,0.0022,-2.9114,0,0,0,1,1
541,0,54.1684,-37.844,80021.8,-6154,-1444,-13.350.0000,0.0021,-2.9111,0,0,0,1,1
542,0,54.1557,-37.9371,80018.9,-6150,-1445,-12.820.0000,0.002,-2.9108,0,0,0,1,1
543,0,54.143,-38.0301,80016.3,-6146,-1446,-12.320.0000,0.002,-2.9105,0,0,0,1,1
544,0,54.1302,-38.123,80014,-6141,-1447,-11.840.0000,0.0019,-2.9101,0,0,0,1,1
545,0,54.1175,-38.2159,80011.9,-6137,-1449,-11.390.0000,0.0018,-2.9098,0,0,0,1,1
546,0,54.1047,-38.3086,80010.1,-6133,-1450,-10.960.0000,0.0017,-2.9095,0,0,0,1,1
547,0,54.092,-38.4012,80008.6,-6129,-1451,-10.550.0000,0.0017,-2.9091,0,0,0,1,1
548,0,54.0792,-38.4938,80007.2,-6125,-1452,-10.170.0000,0.0016,-2.9088,0,0,0,1,1
549,0,54.0664,-38.5863,80006,-6121,-1453,-9.8140.0000,0.0016,-2.9085,0,0,0,1,1
550,0,54.0536,-38.6787,80005.1,-6117,-1454,-9.4830.0000,0.0015,-2.9082,0,0,0,1,1
551,0,54.0408,-38.771,80004.3,-6113,-1455,-9.1770.0000,0.0015,-2.9079,0,0,0,1,1
552,0,54.028,-38.8632,80003.6,-6109,-1456,-8.8970.0000,0.0014,-2.9075,0,0,0,1,1
553,0,54.0152,-38.9553,80003.1,-6104,-1458,-8.6410.0000,0.0014,-2.9072,0,0,0,1,1
554,0,54.0023,-39.0474,80002.7,-6100,-1459,-8.4120.0000,0.0013,-2.9069,0,0,0,1,1
555,0,53.9895,-39.1393,80002.4,-6096,-1460,-8.2080.0000,0.0013,-2.9066,0,0,0,1,1
556,0,53.9766,-39.2312,80002.2,-6092,-1461,-8.030.0000,0.0013,-2.9063,0,0,0,1,1
557,0,53.9638,-39.323,80002,-6088,-1462,-7.8780.0000,0.0013,-2.906,0,0,0,1,1
558,0,53.9509,-39.4147,80001.9,-6084,-1463,-7.7520.0000,0.0012,-2.9056,0,0,0,1,1
559,0,53.938,-39.5063,80001.8,-6080,-1464,-7.6530.0000,0.0012,-2.9053,0,0,0,1,1
560,0,53.9251,-39.5979,80001.8,-6076,-1465,-7.580.0000,0.0012,-2.905,0,0,0,1,1
561,0,53.9122,-39.6893,80001.8,-6072,-1466,-7.5290.0000,0.0012,-2.9047,0,0,0,1,1
562,0,53.8992,-39.7807,80001.7,-6068,-1467,-7.4820.0000,0.0012,-2.9044,0,0,0,1,1
563,0,53.8863,-39.872,80001.7,-6064,-1468,-7.440.0000,0.0012,-2.9041,0,0,0,1,1
564,0,53.8733,-39.9632,80001.7,-6060,-1469,-7.4020.0000,0.0012,-2.9037,0,0,0,1,1
565,0,53.8603,-40.0543,80001.6,-6056,-1471,-7.3680.0000,0.0012,-2.9034,0,0,0,1,1
566,0,53.8473,-40.1454,80001.6,-6052,-1472,-7.3370.0000,0.0012,-2.903,0,0,0,1,1
567,0,53.8343,-40.2363,80001.6,-6048,-1473,-7.3090.0000,0.0012,-2.9027,0,0,0,1,1
568,0,53.8212,-40.3272,80001.5,-6044,-1475,-7.2830.0000,0.0012,-2.9023,0,0,0,1,1
569,0,53.8082,-40.418,80001.5,-6041,-1476,-7.260.0000,0.0012,-2.902,0,0,0,1,1
570,0,53.7951,-40.5087,80001.5,-6037,-1477,-7.2380.0000,0.0012,-2.9016,0,0,0,1,1
571,0,53.782,-40.5993,80001.5,-6033,-1479,-7.2190.0000,0.0012,-2.9012,0,0,0,1,1
572,0,53.7689,-40.6898,80001.5,-6029,-1480,-7.20.0000,0.0012,-2.9009,0,0,0,1,1
573,0,53.7558,-40.7802,80001.4,-6025,-1481,-7.1820.0000,0.0012,-2.9005,0,0,0,1,1
574,0,53.7427,-40.8705,80001.4,-6021,-1483,-7.1650.0000,0.0012,-2.9001,0,0,0,1,1
575,0,53.7296,-40.9608,80001.4,-6018,-1484,-7.1480.0000,0.0012,-2.8998,0,0,0,1,1
576,0,53.7165,-41.0509,80001.4,-6014,-1486,-7.1320.0000,0.0012,-2.8994,0,0,0,1,1
577,0,53.7033,-41.141,80001.4,-6010,-1487,-7.1140.0000,0.0011,-2.8991,0,0,0,1,1
578,0,53.6902,-41.231,80001.4,-6006,-1488,-7.0960.0000,0.0011,-2.8987,0,0,0,1,1
579,0,53.6771,-41.3209,80001.4,-6002,-1489,-7.0770.0000,0.0011,-2.8984,0,0,0,1,1
580,0,53.6639,-41.4107,80001.4,-5999,-1490,-7.0560.0000,0.0011,-2.8981,0,0,0,1,1
581,0,53.6508,-41.5004,80001.4,-5995,-1491,-7.0340.0000,0.0011,-2.8978,0,0,0,1,1
582,0,53.6376,-41.59,80001.4,-5991,-1492,-7.0090.0000,0.0011,-2.8975,0,0,0,1,1
583,0,53.6245,-41.6796,80001.3,-5987,-1493,-6.9820.0000,0.0011,-2.8972,0,0,0,1,1
584,0,53.6113,-41.769,80001.3,-5983,-1494,-6.9520.0000,0.0011,-2.8969,0,0,0,1,1
585,0,53.5981,-41.8584,80001.3,-5979,-1495,-6.920.0000,0.0011,-2.8966,0,0,0,1,1
586,0,53.585,-41.9477,80001.3,-5975,-1495,-6.8830.0000,0.0011,-2.8964,0,0,0,1,1
587,0,53.5718,-42.0368,80001.3,-5972,-1496,-6.8430.0000,0.0011,-2.8961,0,0,0,1,1
588,0,53.5587,-42.1259,80001.3,-5968,-1496,-6.7990.0000,0.0011,-2.8959,0,0,0,1,1
589,0,53.5455,-42.2149,80001.3,-5964,-1497,-6.7510.0000,0.0011,-2.8957,0,0,0,1,1
590,0,53.5324,-42.3038,80001.3,-5960,-1497,-6.6980.0000,0.0011,-2.8955,0,0,0,1,1
591,0,53.5192,-42.3926,80001.3,-5956,-1497,-6.640.0000,0.0011,-2.8954,0,0,0,1,1
592,0,53.5061,-42.4814,80001.3,-5952,-1497,-6.5760.0000,0.0011,-2.8952,0,0,0,1,1
593,0,53.4929,-42.57,80001.3,-5948,-1496,-6.5070.0000,0.0011,-2.8951,0,0,0,1,1
594,0,53.4798,-42.6585,80001.3,-5944,-1496,-6.4320.0000,0.001,-2.895,0,0,0,1,1
595,0,53.4667,-42.747,80001.3,-5940,-1495,-6.3170.0000,0.001,-2.895,0,0,0,1,1
596,0,53.4536,-42.8354,80001.4,-5935,-1495,-6.0890.0000,0.001,-2.8949,0,0,0,1,1
597,0,53.4404,-42.9236,80001.5,-5931,-1494,-5.750.0000,0.0009,-2.8949,0,0,0,1,1
598,0,53.4273,-43.0119,80001.9,-5927,-1493,-5.3090.0000,0.0009,-2.8948,0,0,0,1,1
599,0,53.4141,-43.1,80002.4,-5923,-1492,-4.7730.0000,0.0008,-2.8948,0,0,0,1,1
600,0,53.401,-43.1881,80003.3,-5918,-1491,-4.150.0000,0.0007,-2.8947,0,0,0,1,1
601,0,53.3878,-43.276,80004.5,-5914,-1491,-3.4470.0000,0.0006,-2.8947,0,0,0,1,1
602,0,53.3746,-43.3639,80006.2,-5909,-1490,-2.6720.0000,0.0004,-2.8947,0,0,0,1,1
603,0,53.3615,-43.4518,80008.3,-5905,-1489,-1.8320.0000,0.0003,-2.8946,0,0,0,1,1
604,0,53.3483,-43.5395,80011,-5900,-1488,-0.93490.0000,0.0002,-2.8946,0,0,0,1,1
605,0,53.3351,-43.6271,80014.3,-5896,-1487,0.011550.0000,0,-2.8946,0,0,0,1,1
606,0,53.3219,-43.7147,80018.2,-5891,-1486,10,-0.0002,-2.8946,0,0,0,1,1
607,0,53.3087,-43.8021,80022.9,-5886,-1485,2.0230.0000,-0.0003,-2.8945,0,0,0,1,1
608,0,53.2956,-43.8895,80028.4,-5882,-1484,3.0740.0000,-0.0005,-2.8945,0,0,0,1,1
609,0,53.2824,-43.9768,80034.8,-5877,-1482,4.1440.0000,-0.0007,-2.8945,0,0,0,1,1
610,0,53.2692,-44.0639,80042,-5872,-1481,5.2270.0000,-0.0009,-2.8945,0,0,0,1,1
611,0,53.256,-44.151,80050.3,-5868,-1480,6.3140.0000,-0.001,-2.8945,0,0,0,1,1
612,0,53.2428,-44.238,80059.6,-5863,-1479,7.40.0000,-0.0012,-2.8945,0,0,0,1,1
613,0,53.2297,-44.3249,80070,-5858,-1478,8.4760.0000,-0.0014,-2.8944,0,0,0,1,1
614,0,53.2165,-44.4117,80081.6,-5854,-1477,9.5350.0000,-0.0016,-2.8944,0,0,0,1,1
615,0,53.2033,-44.4983,80094.4,-5849,-1476,10.570.0000,-0.0018,-2.8944,0,0,0,1,1
616,0,53.1902,-44.5849,80108.5,-5844,-1475,11.570.0000,-0.0019,-2.8944,0,0,0,1,1
617,0,53.177,-44.6714,80123.9,-5839,-1474,12.540.0000,-0.0021,-2.8943,0,0,0,1,1
618,0,53.1639,-44.7578,80140.8,-5835,-1473,13.460.0000,-0.0022,-2.8943,0,0,0,1,1
619,0,53.1507,-44.844,80159.2,-5830,-1472,14.330.0000,-0.0024,-2.8943,0,0,0,1,1
620,0,53.1376,-44.9302,80179.1,-5825,-1471,15.130.0000,-0.0025,-2.8942,0,0,0,1,1
621,0,53.1245,-45.0162,80200.6,-5821,-1470,15.870.0000,-0.0026,-2.8942,0,0,0,1,1
622,0,53.1114,-45.1022,80223.8,-5816,-1469,16.540.0000,-0.0028,-2.8941,0,0,0,1,1
623,0,53.0983,-45.188,80248.8,-5811,-1469,17.120.0000,-0.0029,-2.8941,0,0,0,1,1
624,0,53.0852,-45.2737,80275.5,-5807,-1468,17.620.0000,-0.0029,-2.894,0,0,0,1,1
625,0,53.0721,-45.3593,80304.1,-5802,-1467,18.020.0000,-0.003,-2.8939,0,0,0,1,1
626,0,53.059,-45.4447,80334.6,-5798,-1466,18.320.0000,-0.0031,-2.8939,0,0,0,1,1
627,0,53.0459,-45.5301,80367,-5793,-1466,18.510.0000,-0.0031,-2.8938,0,0,0,1,1
628,0,53.0329,-45.6153,80401.6,-5789,-1465,18.580.0000,-0.0031,-2.8937,0,0,0,1,1
629,0,53.0199,-45.7004,80440.3,-5784,-1465,18.570.0000,-0.0031,-2.8936,0,0,0,1,1
630,0,53.0069,-45.7854,80487.3,-5780,-1464,18.540.0000,-0.0031,-2.8935,0,0,0,1,1
631,0,52.9939,-45.8702,80542.3,-5775,-1464,18.490.0000,-0.0031,-2.8933,0,0,0,1,1
632,0,52.981,-45.9548,80604.7,-5770,-1464,18.430.0000,-0.0031,-2.8932,0,0,0,1,1
633,0,52.9681,-46.0393,80673.8,-5765,-1464,18.340.0000,-0.0031,-2.893,0,0,0,1,1
634,0,52.9552,-46.1236,80749.1,-5761,-1464,18.240.0000,-0.0031,-2.8928,0,0,0,1,1
635,0,52.9423,-46.2079,80829.9,-5756,-1464,18.120.0000,-0.0031,-2.8925,0,0,0,1,1
636,0,52.9294,-46.2919,80915.7,-5751,-1464,17.970.0000,-0.003,-2.8923,0,0,0,1,1
637,0,52.9166,-46.3759,81006,-5746,-1464,17.790.0000,-0.003,-2.892,0,0,0,1,1
638,0,52.9038,-46.4598,81100,-5741,-1465,17.590.0000,-0.003,-2.8918,0,0,0,1,1
639,0,52.891,-46.5435,81197.2,-5736,-1465,17.360.0000,-0.0029,-2.8915,0,0,0,1,1
640,0,52.8782,-46.6271,81297.1,-5731,-1466,17.10.0000,-0.0029,-2.8911,0,0,0,1,1
641,0,52.8654,-46.7106,81398.9,-5726,-1467,16.810.0000,-0.0028,-2.8908,0,0,0,1,1
642,0,52.8526,-46.7941,81502.2,-5721,-1468,16.480.0000,-0.0028,-2.8904,0,0,0,1,1
643,0,52.8398,-46.8774,81606.4,-5716,-1469,16.120.0000,-0.0027,-2.8901,0,0,0,1,1
644,0,52.827,-46.9606,81710.7,-5711,-1470,15.720.0000,-0.0027,-2.8897,0,0,0,1,1
645,0,52.8142,-47.0438,81814.8,-5705,-1471,15.280.0000,-0.0026,-2.8893,0,0,0,1,1
646,0,52.8014,-47.1269,81917.8,-5700,-1472,14.80.0000,-0.0025,-2.8888,0,0,0,1,1
647,0,52.7885,-47.2099,82019.4,-5695,-1474,14.280.0000,-0.0024,-2.8884,0,0,0,1,1
648,0,52.7757,-47.2928,82118.8,-5690,-1475,13.720.0000,-0.0023,-2.8879,0,0,0,1,1
649,0,52.7629,-47.3757,82215.5,-5686,-1477,13.110.0000,-0.0022,-2.8874,0,0,0,1,1
650,0,52.75,-47.4585,82309,-5681,-1479,12.450.0000,-0.0021,-2.8869,0,0,0,1,1
651,0,52.7371,-47.5413,82398.5,-5676,-1481,11.740.0000,-0.002,-2.8864,0,0,0,1,1
652,0,52.7242,-47.624,82483.5,-5671,-1483,10.980.0000,-0.0019,-2.8859,0,0,0,1,1
653,0,52.7113,-47.7067,82563.4,-5666,-1485,10.170.0000,-0.0017,-2.8853,0,0,0,1,1
654,0,52.6983,-47.7894,82637.6,-5662,-1487,9.3110.0000,-0.0016,-2.8847,0,0,0,1,1
655,0,52.6853,-47.872,82705.6,-5657,-1490,8.3920.0000,-0.0014,-2.8841,0,0,0,1,1
656,0,52.6723,-47.9546,82766.7,-5653,-1492,7.4170.0000,-0.0013,-2.8835,0,0,0,1,1
657,0,52.6592,-48.0372,82820.4,-5648,-1495,6.3820.0000,-0.0011,-2.8829,0,0,0,1,1
658,0,52.6461,-48.1197,82866,-5644,-1497,5.2860.0000,-0.0009,-2.8822,0,0,0,1,1
659,0,52.633,-48.2022,82903,-5640,-1500,4.1290.0000,-0.0007,-2.8816,0,0,0,1,1
660,0,52.6198,-48.2848,82930.8,-5635,-1503,2.9070.0000,-0.0005,-2.8809,0,0,0,1,1
661,0,52.6066,-48.3673,82948.7,-5631,-1506,1.620.0000,-0.0003,-2.8802,0,0,0,1,1
662,0,52.5933,-48.4499,82956.2,-5628,-1510,0.26550.0000,0,-2.8795,0,0,0,1,1
663,0,52.58,-48.5323,82955.4,-5624,-1513,-1.2390.0000,0.0002,-2.8788,0,0,0,1,1
664,0,52.5665,-48.6147,82951.4,-5620,-1517,-3.0280.0000,0.0005,-2.8779,0,0,0,1,1
665,0,52.5531,-48.6968,82944.5,-5617,-1522,-5.0630.0000,0.0009,-2.877,0,0,0,1,1
666,0,52.5395,-48.7788,82934.9,-5614,-1527,-7.2980.0000,0.0013,-2.8761,0,0,0,1,1
667,0,52.526,-48.8607,82922.5,-5612,-1532,-9.6860.0000,0.0017,-2.8751,0,0,0,1,1
668,0,52.5123,-48.9424,82907.6,-5609,-1538,-12.180.0000,0.0021,-2.874,0,0,0,1,1
669,0,52.4986,-49.0241,82890.2,-5607,-1544,-14.740.0000,0.0025,-2.8729,0,0,0,1,1
670,0,52.4848,-49.1056,82870.5,-5604,-1550,-17.320.0000,0.003,-2.8718,0,0,0,1,1
671,0,52.471,-49.1871,82848.6,-5601,-1556,-19.870.0000,0.0034,-2.8707,0,0,0,1,1
672,0,52.4571,-49.2685,82824.6,-5599,-1562,-22.350.0000,0.0038,-2.8696,0,0,0,1,1
673,0,52.4432,-49.3499,82798.6,-5596,-1568,-24.710.0000,0.0043,-2.8685,0,0,0,1,1
674,0,52.4293,-49.4312,82770.7,-5593,-1573,-26.90.0000,0.0046,-2.8674,0,0,0,1,1
675,0,52.4153,-49.5125,82740.9,-5589,-1579,-28.90.0000,0.005,-2.8663,0,0,0,1,1
676,0,52.4012,-49.5937,82708,-5586,-1585,-30.940.0000,0.0053,-2.8652,0,0,0,1,1
677,0,52.3871,-49.6749,82671.9,-5582,-1590,-33.050.0000,0.0057,-2.8641,0,0,0,1,1
678,0,52.373,-49.7561,82632.9,-5579,-1596,-35.20.0000,0.0061,-2.8629,0,0,0,1,1
679,0,52.3588,-49.8371,82591.4,-5575,-1602,-37.330.0000,0.0064,-2.8618,0,0,0,1,1
680,0,52.3446,-49.9181,82547.8,-5572,-1608,-39.410.0000,0.0068,-2.8607,0,0,0,1,1
681,0,52.3303,-49.9991,82502.5,-5568,-1613,-41.380.0000,0.0071,-2.8595,0,0,0,1,1
682,0,52.3159,-50.0799,82455.8,-5564,-1619,-43.20.0000,0.0075,-2.8584,0,0,0,1,1
683,0,52.3015,-50.1606,82408.2,-5560,-1625,-44.820.0000,0.0077,-2.8572,0,0,0,1,1
684,0,52.2871,-50.2413,82359.9,-5556,-1631,-46.20.0000,0.008,-2.8561,0,0,0,1,1
685,0,52.2726,-50.3218,82311.4,-5552,-1637,-47.290.0000,0.0082,-2.8549,0,0,0,1,1
686,0,52.258,-50.4023,82263,-5547,-1642,-48.040.0000,0.0083,-2.8537,0,0,0,1,1
687,0,52.2434,-50.4826,82215.2,-5542,-1648,-48.420.0000,0.0084,-2.8526,0,0,0,1,1
688,0,52.2288,-50.5628,82167.5,-5538,-1654,-48.50.0000,0.0084,-2.8514,0,0,0,1,1
689,0,52.2141,-50.6429,82118.4,-5532,-1659,-48.560.0000,0.0084,-2.8502,0,0,0,1,1
690,0,52.1993,-50.723,82068.3,-5527,-1665,-48.610.0000,0.0084,-2.8491,0,0,0,1,1
691,0,52.1846,-50.8029,82017.2,-5522,-1670,-48.640.0000,0.0084,-2.8479,0,0,0,1,1
692,0,52.1697,-50.8828,81965.5,-5516,-1675,-48.650.0000,0.0084,-2.8467,0,0,0,1,1
693,0,52.1548,-50.9625,81913.3,-5510,-1681,-48.650.0000,0.0084,-2.8455,0,0,0,1,1
694,0,52.1399,-51.0422,81860.9,-5505,-1686,-48.650.0000,0.0084,-2.8443,0,0,0,1,1
695,0,52.1249,-51.1217,81808.5,-5499,-1692,-48.630.0000,0.0085,-2.8431,0,0,0,1,1
696,0,52.1098,-51.2011,81756.3,-5493,-1697,-48.610.0000,0.0085,-2.842,0,0,0,1,1
697,0,52.0948,-51.2804,81704.5,-5487,-1702,-48.580.0000,0.0085,-2.8408,0,0,0,1,1
698,0,52.0796,-51.3596,81653.3,-5480,-1707,-48.550.0000,0.0085,-2.8396,0,0,0,1,1
699,0,52.0645,-51.4387,81603,-5474,-1713,-48.510.0000,0.0085,-2.8384,0,0,0,1,1
700,0,52.0493,-51.5176,81553.8,-5468,-1718,-48.470.0000,0.0085,-2.8372,0,0,0,1,1
701,0,52.034,-51.5964,81504.7,-5462,-1723,-48.320.0000,0.0084,-2.836,0,0,0,1,1
702,0,52.0187,-51.6752,81455.7,-5456,-1728,-48.050.0000,0.0084,-2.8349,0,0,0,1,1
703,0,52.0033,-51.7538,81406.7,-5449,-1733,-47.660.0000,0.0083,-2.8337,0,0,0,1,1
704,0,51.9879,-51.8323,81358,-5443,-1738,-47.170.0000,0.0083,-2.8325,0,0,0,1,1
705,0,51.9725,-51.9106,81309.6,-5436,-1743,-46.60.0000,0.0082,-2.8313,0,0,0,1,1
706,0,51.957,-51.9889,81261.7,-5430,-1748,-45.960.0000,0.0081,-2.8302,0,0,0,1,1
707,0,51.9414,-52.067,81214.3,-5423,-1753,-45.260.0000,0.0079,-2.829,0,0,0,1,1
708,0,51.9259,-52.145,81167.6,-5417,-1758,-44.520.0000,0.0078,-2.8278,0,0,0,1,1
709,0,51.9102,-52.2229,81121.7,-5410,-1762,-43.750.0000,0.0077,-2.8267,0,0,0,1,1
710,0,51.8946,-52.3007,81076.7,-5403,-1767,-42.960.0000,0.0076,-2.8255,0,0,0,1,1
711,0,51.8789,-52.3783,81032.7,-5396,-1772,-42.170.0000,0.0074,-2.8243,0,0,0,1,1
712,0,51.8631,-52.4558,80989.8,-5390,-1777,-41.390.0000,0.0073,-2.8232,0,0,0,1,1
713,0,51.8473,-52.5332,80948,-5383,-1781,-40.620.0000,0.0072,-2.822,0,0,0,1,1
714,0,51.8315,-52.6104,80906.7,-5376,-1786,-39.80.0000,0.007,-2.8208,0,0,0,1,1
715,0,51.8156,-52.6876,80866.2,-5369,-1791,-38.940.0000,0.0069,-2.8197,0,0,0,1,1
716,0,51.7997,-52.7646,80826.3,-5362,-1795,-38.040.0000,0.0067,-2.8185,0,0,0,1,1
717,0,51.7838,-52.8414,80787.3,-5355,-1800,-37.120.0000,0.0066,-2.8174,0,0,0,1,1
718,0,51.7678,-52.9182,80749,-5348,-1804,-36.170.0000,0.0064,-2.8162,0,0,0,1,1
719,0,51.7517,-52.9948,80711.6,-5340,-1809,-35.20.0000,0.0062,-2.8151,0,0,0,1,1
720,0,51.7357,-53.0713,80675.2,-5333,-1813,-34.220.0000,0.0061,-2.8139,0,0,0,1,1
721,0,51.7196,-53.1477,80639.7,-5326,-1817,-33.230.0000,0.0059,-2.8128,0,0,0,1,1
722,0,51.7034,-53.2239,80605.3,-5319,-1822,-32.230.0000,0.0057,-2.8116,0,0,0,1,1
723,0,51.6872,-53.3,80571.9,-5311,-1826,-31.230.0000,0.0056,-2.8105,0,0,0,1,1
724,0,51.671,-53.376,80539.7,-5304,-1830,-30.240.0000,0.0054,-2.8093,0,0,0,1,1
725,0,51.6547,-53.4518,80508.6,-5297,-1834,-29.260.0000,0.0052,-2.8082,0,0,0,1,1
726,0,51.6384,-53.5275,80478.7,-5290,-1839,-28.260.0000,0.005,-2.8071,0,0,0,1,1
727,0,51.6221,-53.6031,80449.8,-5282,-1843,-27.250.0000,0.0049,-2.8059,0,0,0,1,1
728,0,51.6057,-53.6785,80421.9,-5275,-1847,-26.210.0000,0.0047,-2.8048,0,0,0,1,1
729,0,51.5893,-53.7538,80395,-5268,-1851,-25.170.0000,0.0045,-2.8037,0,0,0,1,1
730,0,51.5729,-53.829,80369.2,-5260,-1855,-24.120.0000,0.0043,-2.8025,0,0,0,1,1
731,0,51.5564,-53.904,80344.3,-5253,-1859,-23.070.0000,0.0041,-2.8014,0,0,0,1,1
732,0,51.5399,-53.9789,80320.4,-5245,-1863,-22.030.0000,0.004,-2.8003,0,0,0,1,1
733,0,51.5233,-54.0537,80297.5,-5238,-1867,-20.990.0000,0.0038,-2.7992,0,0,0,1,1
734,0,51.5067,-54.1284,80275.5,-5231,-1871,-19.970.0000,0.0036,-2.7981,0,0,0,1,1
735,0,51.4901,-54.2029,80254.5,-5223,-1875,-18.960.0000,0.0034,-2.797,0,0,0,1,1
736,0,51.4734,-54.2773,80234.4,-5216,-1879,-17.980.0000,0.0032,-2.7958,0,0,0,1,1
737,0,51.4567,-54.3515,80215.2,-5209,-1883,-17.020.0000,0.0031,-2.7947,0,0,0,1,1
738,0,51.44,-54.4256,80197,-5201,-1887,-16.080.0000,0.0029,-2.7936,0,0,0,1,1
739,0,51.4233,-54.4996,80179.9,-5194,-1890,-15.150.0000,0.0027,-2.7925,0,0,0,1,1
740,0,51.4065,-54.5735,80164,-5187,-1894,-14.230.0000,0.0026,-2.7914,0,0,0,1,1
741,0,51.3896,-54.6472,80149.1,-5179,-1898,-13.310.0000,0.0024,-2.7903,0,0,0,1,1
742,0,51.3728,-54.7208,80135.2,-5172,-1902,-12.410.0000,0.0023,-2.7893,0,0,0,1,1
743,0,51.3559,-54.7942,80122.2,-5165,-1905,-11.510.0000,0.0021,-2.7882,0,0,0,1,1
744,0,51.3389,-54.8676,80110,-5157,-1909,-10.640.0000,0.0019,-2.7871,0,0,0,1,1
745,0,51.322,-54.9408,80098.6,-5150,-1913,-9.7910.0000,0.0018,-2.786,0,0,0,1,1
746,0,51.305,-55.0138,80087.9,-5143,-1916,-8.9640.0000,0.0016,-2.7849,0,0,0,1,1
747,0,51.2879,-55.0868,80077.9,-5135,-1920,-8.1630.0000,0.0015,-2.7838,0,0,0,1,1
748,0,51.2709,-55.1596,80068.5,-5128,-1923,-7.3920.0000,0.0013,-2.7828,0,0,0,1,1
749,0,51.2538,-55.2323,80059.7,-5121,-1927,-6.6540.0000,0.0012,-2.7817,0,0,0,1,1
750,0,51.2367,-55.3048,80051.3,-5114,-1930,-5.9510.0000,0.0011,-2.7806,0,0,0,1,1
751,0,51.2195,-55.3773,80043.6,-5107,-1934,-5.2750.0000,0.001,-2.7796,0,0,0,1,1
752,0,51.2024,-55.4496,80036.6,-5100,-1937,-4.6240.0000,0.0008,-2.7785,0,0,0,1,1
753,0,51.1851,-55.5218,80030.3,-5093,-1941,-3.9970.0000,0.0007,-2.7775,0,0,0,1,1
754,0,51.1679,-55.5938,80024.7,-5086,-1944,-3.3940.0000,0.0006,-2.7764,0,0,0,1,1
755,0,51.1506,-55.6657,80019.8,-5079,-1948,-2.8160.0000,0.0005,-2.7754,0,0,0,1,1
